Region,Country,Station,Latitude,Longitude,"Ts,avg","Ts,amplitude,1","Ts,amplitude,2",PL1,PL2,
1,BEN,COTONOU,6.35,2.38,28.0,-1.5,0.7,56,32,
1,BEN,PARAKOU,9.35,2.62,27.6,-2.2,1.0,69,21,
1,BFA,BOBO-DIOULASSO,11.17,-4.32,27.8,-1.7,1.8,99,24,
1,BFA,DORI,14.03,-0.03,30.9,4.2,3.0,-11,17,
1,BFA,OUAGADOUGOU,12.35,-1.52,30.2,2.4,2.6,-32,23,
1,BWA,FRANCISTOWN,-21.22,27.50,24.0,-4.6,1.8,1,6,
1,BWA,MAUN,-19.98,23.42,26.2,-4.6,2.2,-5,4,
1,BWA,SERETSE-KHAMA-INTER,-24.55,25.92,22.9,-6.0,1.4,4,3,
1,CIV,ABIDJAN,5.25,-3.93,27.8,-1.8,0.7,64,30,
1,DZA,ANNABA,36.83,7.82,19.8,7.7,0.8,31,-33,
1,DZA,BATNA,35.75,6.32,17.9,10.8,-1.5,23,53,
1,DZA,BECHAR,31.50,-2.25,22.9,11.5,0.8,21,-23,
1,DZA,BEJAIA-AP,36.72,5.07,19.9,8.3,1.1,31,-22,
1,DZA,BISKRA,34.80,5.73,24.0,11.3,-1.1,22,48,
1,DZA,BORDJ-BOU-ARRERIDJ,36.07,4.77,17.7,11.0,1.8,24,-35,
1,DZA,CHLEF,36.22,1.33,21.3,10.2,0.0,25,1,
1,DZA,CONSTANTINE,36.28,6.62,18.3,10.6,-0.9,23,47,
1,DZA,DAR-EL-BEIDA,36.68,3.22,19.9,8.0,1.1,28,-33,
1,DZA,DJANET,24.27,9.47,25.4,9.7,2.1,14,17,
1,DZA,EL-BAYADH,33.67,1.00,17.5,12.0,-1.2,23,43,
1,DZA,EL-GOLEA,30.57,2.87,24.0,12.3,1.2,20,-16,
1,DZA,EL-OUED,33.50,6.78,24.0,11.5,1.0,21,-26,
1,DZA,GHARDAIA,32.40,3.80,23.6,11.7,1.0,21,-25,
1,DZA,HASSI-MESSAOUD,31.67,6.15,25.0,12.1,1.0,20,-13,
1,DZA,ILLIZI,26.50,8.42,26.5,10.4,1.6,18,5,
1,DZA,IN-AMENAS,28.05,9.63,24.3,10.9,1.3,18,-6,
1,DZA,IN-SALAH,27.23,2.50,27.5,11.2,1.4,19,-24,
1,DZA,JIJEL-ACHOUAT,36.80,5.88,20.6,8.4,1.0,29,-26,
1,DZA,MASCARA-MATEMORE,35.60,0.30,19.6,10.1,-1.6,24,49,
1,DZA,MECHERIA,33.58,-0.28,18.7,11.1,1.5,21,-33,
1,DZA,ORAN-SENIA,35.63,-0.60,20.0,7.8,1.4,27,-36,
1,DZA,SETIF,36.18,5.25,16.8,10.8,-1.5,23,36,
1,DZA,SKIKDA,36.88,6.90,20.9,7.5,0.7,34,-29,
1,DZA,TAMANRASSET,22.80,5.43,23.9,8.4,1.2,15,12,
1,DZA,TEBESSA,35.42,8.12,18.9,10.9,0.8,22,-32,
1,DZA,TIARET,35.35,1.47,17.2,10.9,-1.0,25,44,
1,DZA,TLEMCEN-ZENATA,35.02,-1.47,20.6,8.3,1.2,26,-33,
1,DZA,TOUGGOURT,33.12,6.13,23.9,11.6,1.2,20,-27,
1,EGY,ALEXANDRIA-NOUZHA,31.20,29.95,22.2,7.0,0.7,31,-4,
1,EGY,ASSWAN,23.97,32.78,27.6,9.0,1.7,19,10,
1,EGY,ASYUT,27.05,31.02,24.3,9.2,1.1,19,7,
1,EGY,BAHARIA,28.33,28.90,24.4,8.7,1.1,16,5,
1,EGY,BALTIM,31.55,31.10,22.7,6.8,0.9,33,6,
1,EGY,CAIRO-AP,30.13,31.40,24.0,7.7,0.7,21,9,
1,EGY,DAKHLA,25.48,29.00,26.0,9.8,1.3,17,10,
1,EGY,EL-ARISH,31.08,33.82,22.2,6.9,0.8,28,10,
1,EGY,EL-TOR,28.23,33.62,24.5,6.9,0.6,24,12,
1,EGY,HURGUADA,27.15,33.72,25.9,7.8,0.7,26,10,
1,EGY,ISMAILIA,30.60,32.25,23.6,8.0,0.8,26,5,
1,EGY,KHARGA,25.45,30.53,27.0,9.7,1.3,18,19,
1,EGY,KOSSEIR,26.13,34.15,26.0,6.5,0.5,27,6,
1,EGY,LUXOR,25.67,32.70,27.0,9.5,1.4,18,11,
1,EGY,MERSA-MATRUH,31.33,27.22,21.8,7.2,0.6,34,-10,
1,EGY,MINYA,28.08,30.73,24.1,9.0,0.8,21,2,
1,EGY,PORT-SAID-EL-GAMIL,31.28,32.23,23.0,6.9,0.5,35,5,
1,EGY,SIWA,29.20,25.32,24.8,9.6,1.1,20,2,
1,ESH,DAKHLA,23.72,-15.93,22.1,2.4,0.0,37,14,
1,ESP,FUERTEVENTURA-AP,28.45,-13.87,22.9,4.1,1.2,40,-10,
1,ESP,LA-PALMA-AP,28.62,-17.75,22.3,3.7,0.6,41,-24,
1,ESP,LANZAROTE-AP,28.95,-13.60,22.1,3.5,1.1,43,-12,
1,ESP,LAS-PALMAS-DE-GRAN,27.93,-15.38,22.3,3.4,0.6,41,-15,
1,ESP,MELILLA,35.28,-2.95,20.9,7.0,-1.0,29,46,
1,ESP,STA-CRUZ-DE-TENERI,28.45,-16.25,23.4,4.3,0.4,38,-26,
1,ESP,TENERIFE-LOS-RODEOS,28.47,-16.32,17.9,3.9,0.6,38,-19,
1,ESP,TENERIFE-SUR,28.05,-16.57,23.3,3.6,0.5,37,-8,
1,FRA,SERGE-FROLOW(ILE-T),-15.80,54.50,26.2,-2.4,0.3,49,0,
1,KEN,GARISSA,-0.47,39.63,30.3,-1.9,0.7,37,6,
1,KEN,KISUMU,-0.10,34.75,24.3,-0.6,0.6,24,-10,
1,KEN,KITALE,1.02,35.00,19.9,-0.8,0.6,51,-5,
1,KEN,LODWAR,3.12,35.62,31.5,-0.1,0.6,14,-2,
1,KEN,MAKINDU,-2.28,37.83,23.4,-1.2,0.7,12,-5,
1,KEN,MARSABIT,2.30,37.90,21.8,0.0,0.4,-7,13,
1,KEN,MERU,0.08,37.65,21.8,-0.7,1.2,57,3,
1,KEN,MOMBASA,-4.03,39.62,27.9,-1.5,0.9,24,16,
1,KEN,MOYALE,3.53,39.03,24.2,-2.3,1.0,36,-38,
1,KEN,NAIROBI-KENYATTA-AP,-1.32,36.92,20.1,-1.0,0.8,35,-5,
1,KEN,NAKURU,-0.27,36.10,19.8,-1.0,0.6,60,-23,
1,KEN,NYERI,-0.50,36.97,18.4,-1.0,0.9,38,3,
1,KEN,VOI,-3.40,38.57,25.4,-1.6,0.6,34,11,
1,LBY,AGEDABIA,30.72,20.17,23.0,8.3,1.1,25,5,
1,LBY,BENINA,32.10,20.27,22.1,8.0,0.4,29,9,
1,LBY,GHADAMES,30.13,9.50,24.6,10.9,1.2,19,-5,
1,LBY,KUFRA,24.22,23.30,25.5,9.2,1.2,15,10,
1,LBY,MISURATA,32.42,15.05,22.8,7.6,0.7,30,9,
1,LBY,NALUT,31.87,10.98,21.4,9.7,0.9,26,-10,
1,LBY,SEBHA,27.02,14.45,25.1,10.2,1.5,19,9,
1,LBY,SIRTE,31.20,16.58,22.8,7.1,1.0,33,-2,
1,LBY,TRIPOLI-INTL-AP,32.70,13.08,22.9,9.1,1.5,24,3,
1,LBY,ZUARA,32.88,12.08,22.9,8.0,1.1,33,-16,
1,MAR,AGADIR-AL-MASSIRA,30.32,-9.40,22.2,5.7,0.7,24,-8,
1,MAR,AL-HOCEIMA,35.18,-3.85,20.1,6.6,1.0,26,-31,
1,MAR,BENI-MELLAL,32.37,-6.40,22.1,9.4,1.1,22,-26,
1,MAR,CASABLANCA,33.57,-7.67,20.3,5.9,0.7,27,-17,
1,MAR,ERRACHIDIA,31.93,-4.40,22.2,11.5,0.8,20,-18,
1,MAR,ESSAOUIRA,31.52,-9.78,20.3,3.3,0.9,29,-3,
1,MAR,FES-SAIS,33.93,-4.98,19.5,9.1,0.9,28,-27,
1,MAR,MARRAKECH,31.62,-8.03,22.8,8.7,1.5,23,-30,
1,MAR,MEKNES,33.88,-5.53,19.7,8.5,-1.0,23,45,
1,MAR,MIDELT,32.68,-4.73,18.1,9.8,1.1,24,-21,
1,MAR,NADOR-AROUI,34.98,-3.02,20.5,6.9,1.4,30,-21,
1,MAR,NOUASSEUR,33.37,-7.58,19.8,6.4,0.8,28,-12,
1,MAR,OUARZAZATE,30.93,-6.90,21.5,10.0,1.5,18,-31,
1,MAR,OUJDA,34.78,-1.93,19.2,8.1,1.2,29,-34,
1,MAR,RABAT-SALE,34.05,-6.77,19.6,6.1,0.7,27,-9,
1,MAR,SAFI,32.28,-9.23,20.7,5.9,0.9,30,-24,
1,MAR,SIDI-IFNI,29.37,-10.18,21.2,2.4,0.7,26,11,
1,MAR,TAN-TAN,28.45,-11.15,20.6,3.6,0.5,44,2,
1,MAR,TANGER(AERODROME),35.73,-5.90,19.6,6.7,0.6,28,-29,
1,MAR,TAZA,34.22,-4.00,21.3,9.7,1.7,23,-36,
1,MAR,TETUAN-SANIA-RAMEL,35.58,-5.33,20.4,6.7,-0.8,28,53,
1,MDG,ANTANANARIVO-IVATO,-18.80,47.48,19.5,-3.3,0.9,21,18,
1,MDG,MAHAJANGA,-15.67,46.35,27.0,-1.8,0.7,34,24,
1,MDG,TAOLAGNARO,-25.03,46.95,24.0,-2.9,0.3,23,20,
1,MDG,TOAMASINA,-18.12,49.40,24.7,-3.2,0.2,33,-13,
1,MLI,BAMAKO-SENOU,12.53,-7.95,28.3,2.7,2.0,-51,16,
1,MLI,MOPTI,14.52,-4.10,30.9,3.9,2.3,-9,21,
1,MOZ,MAPUTO-MAVALANE,-25.92,32.57,24.0,-3.6,0.7,26,-8,
1,MRT,NOUADHIBOU,20.93,-17.03,23.7,2.2,0.6,54,-17,
1,MRT,NOUAKCHOTT,18.10,-15.95,27.3,3.5,1.5,42,-4,
1,MUS,AGALEGA,-10.43,56.75,27.3,-1.8,0.2,38,15,
1,MUS,PLAISANCE(MAURITIU),-20.43,57.68,24.4,-2.8,0.0,36,-7,
1,MUS,RODRIGUES,-19.68,63.42,24.8,-2.4,0.4,47,-8,
1,MUS,ST-BRANDON(ST-RA),-16.45,59.62,26.0,-1.8,0.2,43,-25,
1,MUS,VACOAS(MAURITIUS),-20.30,57.50,23.3,-3.0,0.1,32,15,
1,MYT,DZAOUDZI-PAMANZI(M),-12.80,45.28,26.9,-1.6,1.0,48,35,
1,NAM,GROOTFONTEIN,-19.60,18.12,24.0,-4.3,1.4,-7,10,
1,NAM,LUDERITZ(DIAZ-POIN),-26.63,15.10,17.9,-2.4,-0.2,29,4,
1,NAM,RUNDU,-17.92,19.77,25.3,-4.4,2.4,-9,9,
1,NAM,WINDHOEK,-22.57,17.10,22.8,-5.5,1.4,-4,9,
1,NER,AGADEZ,16.97,7.98,29.3,6.6,2.4,6,17,
1,NER,BIRNI-NKONNI,13.80,5.25,30.8,3.6,2.6,-15,20,
1,NER,MAGARIA,12.98,8.93,28.9,4.7,2.9,-7,18,
1,NER,MAINE-SOROA,13.23,11.98,29.1,4.8,2.8,-6,23,
1,NER,MARADI,13.47,7.08,29.7,4.4,2.5,-10,15,
1,NER,NIAMEY-AERO,13.48,2.17,31.0,3.0,2.8,-18,19,
1,NER,TAHOUA,14.90,5.25,30.6,4.1,2.6,-11,19,
1,NER,TILLABERY,14.20,1.45,31.8,3.5,2.7,-11,20,
1,NER,ZINDER,13.78,8.98,29.7,4.5,2.9,-10,18,
1,REU,SAINT-DENIS-GILLOT,-20.88,55.52,25.5,-3.4,0.4,29,6,
1,SEN,CAP-SKIRRING,12.40,-16.75,26.9,1.7,0.6,35,9,
1,SEN,DAKAR-YOFF,14.73,-17.50,26.7,3.7,0.6,55,25,
1,SEN,DIOURBEL,14.65,-16.23,31.2,2.8,1.4,10,21,
1,SEN,KAOLACK,14.13,-16.07,31.0,2.3,1.7,13,17,
1,SEN,LINGUERE,15.38,-15.12,32.0,3.3,1.5,-2,23,
1,SEN,MATAM,15.65,-13.25,32.2,4.3,2.3,-11,21,
1,SEN,PODOR,16.65,-14.97,30.6,4.2,1.9,8,20,
1,SEN,SAINT-LOUIS,16.05,-16.45,26.8,3.5,0.9,51,-4,
1,SEN,TAMBACOUNDA,13.77,-13.68,29.9,2.8,1.7,-45,24,
1,SEN,ZIGUINCHOR,12.55,-16.27,27.8,1.6,0.9,13,27,
1,SHN,WIDE-AWAKE-FIELD(A),-7.97,-14.40,25.6,-1.9,0.1,96,-15,
1,SYC,SEYCHELLES-INTL-AP,-4.67,55.52,27.7,-1.1,0.7,45,12,
1,TCD,NDJAMENA,12.13,15.03,30.5,3.3,3.0,-17,23,
1,TGO,LOME,6.17,1.25,27.6,-1.7,0.7,54,27,
1,TUN,BIZERTE,37.25,9.80,20.1,8.4,0.9,31,-32,
1,TUN,DJERBA-MELLITA,33.87,10.77,22.8,8.1,1.1,32,-13,
1,TUN,GABES,33.88,10.10,22.3,8.4,1.1,29,-16,
1,TUN,GAFSA,34.42,8.82,21.4,10.4,0.7,22,-22,
1,TUN,JENDOUBA,36.48,8.80,21.0,9.9,1.0,26,-41,
1,TUN,KAIROUAN,35.67,10.10,22.7,9.5,1.0,27,-31,
1,TUN,KELIBIA,36.85,11.08,20.3,7.9,-0.7,33,52,
1,TUN,MEDENINE,33.35,10.48,22.8,9.5,1.5,25,-12,
1,TUN,MONASTIR-SKANES,35.67,10.75,21.7,8.4,1.0,32,-27,
1,TUN,REMADA,32.32,10.40,22.8,9.6,1.4,24,-8,
1,TUN,SFAX-EL-MAOU,34.72,10.68,21.8,8.8,0.9,27,-21,
1,TUN,SIDI-BOUZID,35.00,9.48,21.8,10.1,0.7,23,-34,
1,TUN,TABARKA,36.95,8.75,20.3,8.0,0.9,28,-38,
1,TUN,THALA,35.55,8.68,16.1,9.9,-0.1,26,1,
1,TUN,TOZEUR,33.92,8.17,23.6,10.3,1.2,22,-22,
1,TUN,TUNIS-CARTHAGE,36.83,10.23,20.9,8.6,-0.1,30,4,
1,TZA,DAR-ES-SALAAM-AP,-6.87,39.20,25.9,-1.8,-0.1,38,-7,
1,ZAF,BETHLEHEM,-28.25,28.33,15.2,-5.9,1.3,12,0,
1,ZAF,BLOEMFONTEIN-AP,-29.10,26.30,18.4,-7.9,1.1,8,-5,
1,ZAF,CAPE-COLUMBINE,-32.83,17.85,17.2,-3.2,0.4,22,-22,
1,ZAF,CAPE-TOWN-INTL-AP,-33.97,18.60,18.8,-5.2,0.1,17,15,
1,ZAF,DE-AAR,-30.65,24.00,19.5,-7.8,0.7,12,-17,
1,ZAF,DURBAN-INTL-AP,-29.97,30.95,21.8,-3.5,0.8,27,-14,
1,ZAF,EAST-LONDON,-33.03,27.83,19.4,-3.4,0.5,32,-16,
1,ZAF,GEORGE-AP,-34.02,22.38,17.0,-3.7,0.0,27,11,
1,ZAF,GOUGH-ISLAND,-40.35,-9.88,12.8,-3.0,-0.2,38,34,
1,ZAF,KIMBERLEY,-28.80,24.77,20.8,-8.0,1.5,8,-13,
1,ZAF,MARION-ISLAND,-46.88,37.87,7.4,-2.3,-0.1,42,12,
1,ZAF,MOSSEL-BAY(CAPE-ST),-34.18,22.15,18.3,-3.2,-0.6,34,36,
1,ZAF,PIETERSBURG,-23.83,29.42,20.9,-4.9,1.1,9,-11,
1,ZAF,PORT-ELIZABETH,-33.98,25.62,18.4,-3.6,0.0,28,8,
1,ZAF,PRETORIA,-25.73,28.18,19.9,-5.2,1.5,6,-7,
1,ZAF,SPRINGBOK,-29.67,17.90,19.4,-6.2,0.9,21,3,
1,ZAF,UPINGTON,-28.40,21.27,22.6,-8.1,1.0,14,-10,
1,ZWE,BEITBRIDGE,-22.22,30.00,26.5,-5.5,1.4,4,-1,
1,ZWE,BULAWAYO-AP,-20.02,28.62,21.9,-4.0,1.6,-4,4,
1,ZWE,GWERU,-19.45,29.85,18.6,-3.5,1.3,-3,3,
1,ZWE,HARARE(KUTSAGA),-17.92,31.13,20.1,-3.2,1.5,-2,12,
1,ZWE,KAROI,-16.83,29.62,20.2,-2.9,2.0,-10,18,
1,ZWE,MASVINGO,-20.07,30.87,21.5,-4.3,1.4,-3,6,
1,ZWE,RUSAPE,-18.53,32.13,18.9,-3.7,1.1,-7,10,
2,,BASE ARTURO PRAT,-62.50,-59.68,-0.9,-2.3,0.5,29,25,
2,,BERNARDO O`HIGGINS,-63.32,-57.90,-1.9,-3.6,1.0,27,18,
2,,CASEY,-66.28,110.52,-7.5,-6.4,-2.5,16,11,
2,,DAVIS,-68.58,77.95,-8.4,-8.0,-2.9,17,6,
2,,FREI CHI BASE,-62.18,-58.98,-1.2,-2.5,0.4,38,22,
2,,HALLEY,-75.50,-26.65,-16.1,-9.6,-2.3,15,7,
2,,NEUMAYER,-70.67,-8.25,-13.1,-8.3,-2.1,25,0,
3,ARE,ABU-DHABI-BATEEN-AP,24.43,54.47,29.1,7.9,0.5,27,-1,
3,ARE,ABU-DHABI-INTL-AP,24.43,54.65,29.2,8.0,0.9,24,6,
3,ARE,AL-AIN-INTL-AP,24.27,55.60,30.0,9.1,0.9,22,15,
3,ARE,DUBAI-INTL-AP,25.25,55.33,29.3,7.9,0.6,25,8,
3,ARE,SHARJAH-INTL-AP,25.33,55.52,28.7,8.3,0.6,24,7,
3,BHR,BAHRAIN-INTL-AP,26.27,50.65,28.2,8.8,0.9,27,24,
3,CHN,ABAG-QI,44.02,114.95,5.3,16.5,0.2,24,8,
3,CHN,AIHUI,50.25,127.45,4.7,14.0,-1.8,30,30,
3,CHN,AKQI,40.93,78.45,9.8,13.6,1.0,19,23,
3,CHN,ALAR,40.50,81.05,14.2,17.2,2.3,15,15,
3,CHN,ALTAY,47.73,88.08,7.3,14.7,-1.9,28,7,
3,CHN,ANDA,46.38,125.32,7.7,15.0,-1.6,26,13,
3,CHN,ANDIR,37.93,83.65,14.3,16.8,1.1,14,6,
3,CHN,ANKANG,32.72,109.03,17.6,10.9,0.5,18,-18,
3,CHN,ANQING,30.53,117.05,18.7,11.1,0.7,23,3,
3,CHN,ANYANG,36.05,114.40,15.8,12.9,1.2,18,1,
3,CHN,ARXAN,47.17,119.93,1.9,11.9,-0.2,29,1,
3,CHN,BACHU,39.80,78.57,15.2,16.6,2.7,15,9,
3,CHN,BAILING-MIAO,41.70,110.43,8.4,15.5,-1.0,23,17,
3,CHN,BAINGOIN,31.37,90.02,1.8,6.5,1.3,38,-46,
3,CHN,BAISE,23.90,106.60,23.2,7.0,1.1,19,16,
3,CHN,BALGUNTAY,42.67,86.33,9.8,14.8,0.8,18,9,
3,CHN,BAODING,38.85,115.57,14.9,14.4,1.2,19,7,
3,CHN,BAOJI,34.35,107.13,15.2,12.4,1.0,18,7,
3,CHN,BAOQING,46.32,132.18,7.2,14.4,-1.7,29,19,
3,CHN,BAOSHAN,25.12,99.18,18.2,6.3,0.9,21,2,
3,CHN,BARKAM,31.90,102.23,11.3,8.5,1.2,14,-10,
3,CHN,BATANG,30.00,99.10,15.7,7.9,0.8,15,2,
3,CHN,BAYAN-MOD,40.75,104.50,10.6,16.6,0.0,18,-3,
3,CHN,BAYANBULAK,43.03,84.15,0.2,9.3,1.1,30,38,
3,CHN,BAYTIK-SHAN,45.37,90.53,6.0,13.2,-1.4,25,27,
3,CHN,BEIHAI,21.48,109.10,23.7,6.4,1.0,25,24,
3,CHN,BEIJING,39.93,116.28,13.9,14.4,1.3,18,7,
3,CHN,BENGBU,32.95,117.37,17.5,11.6,1.0,23,14,
3,CHN,BENXI,41.32,123.78,10.2,14.7,-0.6,25,-5,
3,CHN,BIJIE,27.30,105.23,14.9,9.0,0.8,22,18,
3,CHN,BOXIAN,33.88,115.77,16.9,12.1,1.0,20,4,
3,CHN,BUGT(BAOGUOTU),42.33,120.70,9.2,14.1,-1.0,25,9,
3,CHN,BUGT(BOKETU),48.77,121.92,3.3,12.1,-1.3,29,35,
3,CHN,CANGZHOU,38.33,116.83,14.7,13.9,1.0,21,8,
3,CHN,CHANG-DAO,37.93,120.72,13.4,12.7,1.2,31,22,
3,CHN,CHANGBAI,41.35,128.17,5.8,13.1,-1.8,31,31,
3,CHN,CHANGCHUN,43.90,125.22,8.7,14.4,-1.2,26,7,
3,CHN,CHANGDE,29.05,111.68,19.1,10.4,0.3,24,4,
3,CHN,CHANGLING,44.25,123.97,8.3,14.9,-1.4,28,8,
3,CHN,CHANGSHA,28.23,112.87,18.9,10.8,0.8,27,9,
3,CHN,CHANGTING,25.85,116.37,20.4,9.3,1.3,21,9,
3,CHN,CHAOYANG,41.55,120.45,11.3,15.2,0.8,22,32,
3,CHN,CHENGDE,40.98,117.95,12.0,15.1,0.5,19,8,
3,CHN,CHENGDU,30.67,104.02,18.1,9.4,0.8,20,24,
3,CHN,CHENGSHANTOU,37.40,122.68,12.8,10.9,0.9,37,-3,
3,CHN,CHENZHOU,25.80,113.03,20.2,10.1,1.2,25,24,
3,CHN,CHIFENG,42.27,118.97,10.4,16.1,-0.3,22,1,
3,CHN,CHONGQING,29.58,106.47,20.0,9.7,1.0,21,-7,
3,CHN,CHUXIONG,25.02,101.52,18.0,5.9,1.2,8,0,
3,CHN,DA-QAIDAM,37.85,95.37,6.3,12.5,-1.5,25,32,
3,CHN,DACHEN-DAO,28.45,121.88,18.1,9.1,0.3,38,16,
3,CHN,DALIAN,38.90,121.63,12.1,13.3,1.4,28,8,
3,CHN,DALI,25.70,100.18,17.3,5.9,0.7,16,15,
3,CHN,DANDONG,40.05,124.33,10.5,13.9,0.5,27,-11,
3,CHN,DANXIAN,19.52,109.58,24.9,4.7,1.3,14,22,
3,CHN,DAOCHENG,29.05,100.30,7.0,8.8,0.8,27,28,
3,CHN,DARLAG,33.75,99.65,1.4,7.2,1.0,33,-22,
3,CHN,DATONG,40.10,113.33,10.6,15.6,0.1,19,10,
3,CHN,DAWU,30.98,101.12,11.3,8.4,1.2,15,-3,
3,CHN,DAXIAN,31.20,107.50,18.9,9.7,0.9,23,8,
3,CHN,DEGE,31.80,98.57,8.6,8.8,0.9,20,1,
3,CHN,DELINGHA,37.37,97.37,8.3,12.4,-0.5,20,47,
3,CHN,DENGQEN,31.42,95.60,6.5,9.1,0.0,24,12,
3,CHN,DEQEN,28.45,98.88,7.7,8.6,0.5,26,35,
3,CHN,DINGHAI,30.03,122.12,18.0,10.0,0.3,35,0,
3,CHN,DINGTAO,35.07,115.57,16.0,12.3,1.3,18,1,
3,CHN,DONGFANG,19.10,108.62,26.0,4.6,1.2,21,26,
3,CHN,DONGSHENG,39.83,109.98,9.8,14.5,-0.5,21,-1,
3,CHN,DONGTAI,32.85,120.28,16.4,11.5,0.5,27,6,
3,CHN,DULAN,36.30,98.10,7.1,11.1,-0.9,22,30,
3,CHN,DUNHUANG,40.15,94.68,13.2,17.0,1.1,17,37,
3,CHN,DUNHUA,43.37,128.20,6.6,13.8,-1.8,31,22,
3,CHN,DUOLUN,42.18,116.47,5.8,12.8,-1.8,29,30,
3,CHN,DUSHAN,25.83,107.55,16.8,8.2,1.0,24,21,
3,CHN,EJIN-QI,41.95,101.07,11.7,18.5,0.4,18,8,
3,CHN,EMEI-SHAN,29.52,103.33,6.0,7.5,-0.8,28,2,
3,CHN,ENSHI,30.28,109.47,18.4,9.9,0.6,22,6,
3,CHN,ERENHOT,43.65,112.00,8.0,17.4,-0.8,24,25,
3,CHN,FANGXIAN,32.03,110.77,16.8,11.1,0.5,20,11,
3,CHN,FENGJIE,31.02,109.53,18.4,9.8,0.9,23,2,
3,CHN,FENGNING,41.22,116.63,9.5,14.1,-0.8,23,0,
3,CHN,FOGANG,23.87,113.53,22.5,7.5,1.2,28,26,
3,CHN,FUDING,27.33,120.20,20.1,9.0,0.2,30,-6,
3,CHN,FUJIN,47.23,131.98,6.4,14.5,-1.8,31,27,
3,CHN,FUYANG,32.87,115.73,16.9,11.9,0.6,23,4,
3,CHN,FUYUN,46.98,89.52,7.1,17.9,-0.5,25,10,
3,CHN,FUZHOU,26.08,119.28,21.3,8.5,-0.1,33,-11,
3,CHN,GANGCA,37.33,100.13,2.5,8.0,1.4,33,-34,
3,CHN,GANYU,34.83,119.13,15.3,12.0,0.8,27,6,
3,CHN,GANZHOU,25.87,115.00,20.7,9.8,1.0,27,5,
3,CHN,GAOYAO,23.05,112.47,23.4,7.4,1.3,27,17,
3,CHN,GARZE,31.62,100.00,8.6,8.7,0.8,21,17,
3,CHN,GENGMA,23.55,99.40,21.8,5.4,1.2,10,13,
3,CHN,GOLMUD,36.42,94.90,9.2,12.8,0.4,19,-20,
3,CHN,GUAIZIHU,41.37,102.37,12.1,18.1,-0.1,18,7,
3,CHN,GUANGCHANG,26.85,116.33,20.2,10.2,1.4,22,0,
3,CHN,GUANGHUA,32.38,111.67,17.7,11.1,0.7,23,13,
3,CHN,GUANGNAN,24.07,105.07,18.3,6.8,1.5,14,11,
3,CHN,GUANGZHOU,23.17,113.33,23.8,6.9,1.3,28,21,
3,CHN,GUILIN,25.33,110.30,20.3,9.6,1.2,28,19,
3,CHN,GUIPING,23.40,110.08,23.6,7.3,0.9,29,22,
3,CHN,GUIYANG,26.58,106.73,16.4,8.7,1.1,23,18,
3,CHN,GUSHI,32.17,115.67,17.3,11.8,0.6,23,16,
3,CHN,HAIKOU,20.03,110.35,25.0,4.8,1.0,21,27,
3,CHN,HAILAR,49.22,119.75,3.8,13.8,-1.3,29,21,
3,CHN,HAILS,41.45,106.38,8.4,15.5,-0.9,21,18,
3,CHN,HAILUN,47.43,126.97,5.8,14.5,-1.7,29,26,
3,CHN,HAIYANG-DAO,39.05,123.22,12.5,12.9,1.1,31,6,
3,CHN,HAIYANG,36.77,121.17,13.8,12.0,0.8,29,6,
3,CHN,HALIUT,41.57,108.52,9.0,16.1,-0.9,21,18,
3,CHN,HAMI,42.82,93.52,13.2,18.6,1.4,15,26,
3,CHN,HANGZHOU,30.23,120.17,18.2,11.1,0.8,27,-5,
3,CHN,HANZHONG,33.07,107.03,16.3,10.6,0.5,20,-5,
3,CHN,HARBIN,45.75,126.77,7.7,14.7,-1.8,27,18,
3,CHN,HECHI,24.70,108.05,22.4,7.9,0.6,27,14,
3,CHN,HEFEI,31.87,117.23,17.5,11.7,0.6,23,9,
3,CHN,HENAN,34.73,101.60,2.6,7.9,1.3,34,-37,
3,CHN,HEQU,39.38,111.15,12.0,16.3,0.1,18,8,
3,CHN,HEYUAN,23.80,114.73,23.2,7.2,1.3,30,12,
3,CHN,HEZUO,35.00,102.90,5.5,9.7,-1.1,27,32,
3,CHN,HOBOKSAR,46.78,85.72,7.2,14.8,-1.0,26,20,
3,CHN,HOHHOT,40.82,111.68,10.2,15.8,-0.5,20,4,
3,CHN,HOTAN,37.13,79.93,16.3,15.4,1.9,12,0,
3,CHN,HUA-SHAN,34.48,110.08,8.6,10.6,-0.9,24,-26,
3,CHN,HUADE,41.90,114.00,6.6,14.9,-0.9,24,30,
3,CHN,HUADIAN,42.98,126.75,8.2,15.0,-1.7,26,15,
3,CHN,HUAILAI,40.40,115.50,12.0,14.4,0.6,19,39,
3,CHN,HUAJIALING,35.38,105.00,5.5,9.7,-1.1,30,25,
3,CHN,HUANG-SHAN,30.13,118.15,10.4,9.4,0.7,25,21,
3,CHN,HUILI,26.65,102.25,17.2,6.7,0.9,15,7,
3,CHN,HUIMIN,37.50,117.53,14.3,13.9,1.2,20,3,
3,CHN,HUIZE,26.42,103.28,14.6,6.5,1.0,14,2,
3,CHN,HULIN,45.77,132.97,6.7,14.1,-1.8,31,29,
3,CHN,HUMA,51.72,126.65,4.1,14.7,-1.6,28,29,
3,CHN,HUOSHAN,31.40,116.33,17.3,11.2,0.5,21,7,
3,CHN,JARTAI,39.78,105.75,11.4,17.6,1.2,21,44,
3,CHN,JARUD-QI,44.57,120.90,9.7,16.5,-1.0,22,7,
3,CHN,JI'AN(JIANGXI),27.12,114.97,20.2,10.4,1.1,23,1,
3,CHN,JI'AN(JILIN),41.10,126.15,9.8,15.0,-1.0,27,11,
3,CHN,JIANGCHENG,22.62,101.82,20.5,4.8,1.2,13,5,
3,CHN,JIANGLING,30.33,112.18,18.3,10.8,0.6,25,15,
3,CHN,JIEXIU,37.03,111.92,14.8,14.0,1.0,15,9,
3,CHN,JINAN,36.60,117.05,16.2,12.8,0.9,18,11,
3,CHN,JINGDEZHEN,29.30,117.20,19.4,10.8,1.1,25,-1,
3,CHN,JINGHE,44.62,82.90,12.1,18.6,-1.1,21,-35,
3,CHN,JINGHONG,22.00,100.78,24.5,3.9,1.8,1,2,
3,CHN,JINING,41.03,113.07,7.1,13.0,-1.9,26,13,
3,CHN,JINZHOU,41.13,121.12,11.3,14.6,0.5,24,32,
3,CHN,JIULONG,29.00,101.50,11.2,6.4,0.9,17,10,
3,CHN,JIUQUAN,39.77,98.48,10.8,16.1,0.1,21,2,
3,CHN,JIUXIAN-SHAN,25.72,118.10,13.9,6.6,0.4,22,5,
3,CHN,JIXI,45.28,130.95,7.0,14.3,-2.1,30,22,
3,CHN,JURH,42.40,112.90,8.2,16.1,-1.3,23,22,
3,CHN,KABA-HE,48.05,86.35,7.6,14.7,-1.7,29,11,
3,CHN,KANGDING,30.05,101.97,8.6,8.5,0.9,23,13,
3,CHN,KARAMAY,45.60,84.85,11.2,19.2,0.2,21,7,
3,CHN,KASHI,39.47,75.98,15.4,15.2,1.7,15,6,
3,CHN,KESHAN,48.05,125.88,5.8,14.7,-1.8,28,26,
3,CHN,KORLA,41.75,86.13,15.0,16.6,1.2,13,5,
3,CHN,KUANDIAN,40.72,124.78,9.4,14.1,-1.2,27,15,
3,CHN,KUNMING,25.02,102.68,16.6,5.8,1.1,13,2,
3,CHN,KUQA,41.72,82.95,14.4,16.1,1.6,14,8,
3,CHN,LANCANG,22.57,99.93,21.7,4.8,1.4,11,13,
3,CHN,LANGZHONG,31.58,105.97,18.9,9.8,0.5,20,2,
3,CHN,LANZHOU,36.05,103.88,14.7,13.1,1.9,14,-3,
3,CHN,LENGHU,38.83,93.38,6.6,13.5,-1.1,23,29,
3,CHN,LETING,39.43,118.90,12.6,13.9,0.9,22,9,
3,CHN,LHASA,29.67,91.13,10.4,9.2,1.6,19,7,
3,CHN,LHUNZE,28.42,92.47,8.0,8.8,1.3,26,25,
3,CHN,LIANGPING,30.68,107.80,18.3,9.7,0.7,22,-10,
3,CHN,LIANPING,24.37,114.48,22.0,7.8,1.1,26,22,
3,CHN,LIANXIAN,24.78,112.38,21.5,9.2,1.2,26,19,
3,CHN,LIJING,26.83,100.47,14.5,5.6,0.4,12,6,
3,CHN,LINCANG,23.95,100.22,19.6,5.1,1.1,12,5,
3,CHN,LINDONG,43.98,119.40,8.2,14.5,-1.6,24,6,
3,CHN,LINGLING,26.23,111.62,19.4,10.2,1.1,27,16,
3,CHN,LINGXIAN,37.33,116.57,15.1,13.1,0.9,19,7,
3,CHN,LINHAI,28.85,121.13,20.2,10.3,0.6,29,4,
3,CHN,LINHE,40.77,107.40,12.2,16.5,0.1,18,2,
3,CHN,LINJIANG,41.72,126.92,9.2,15.2,-1.2,26,19,
3,CHN,LINXI,43.60,118.07,7.7,14.1,-1.6,28,16,
3,CHN,LINYI,35.05,118.35,15.4,12.5,0.8,23,3,
3,CHN,LISHI,37.50,111.10,12.0,14.5,1.3,19,30,
3,CHN,LISHUI,28.45,119.92,20.1,10.5,0.7,26,-5,
3,CHN,LITANG,30.00,100.27,6.2,7.6,0.6,23,-4,
3,CHN,LIUZHOU,24.35,109.40,22.2,8.4,0.7,31,18,
3,CHN,LIYANG,31.43,119.48,17.7,11.4,0.7,25,8,
3,CHN,LONGKOU,37.62,120.32,14.0,13.2,1.3,27,25,
3,CHN,LONGZHOU,22.37,106.75,23.8,6.3,1.3,25,25,
3,CHN,LU-SHAN,29.58,115.98,13.9,9.5,0.2,25,9,
3,CHN,LUODIAN,25.43,106.77,21.7,7.9,0.8,19,15,
3,CHN,LUSHI,34.05,111.03,14.5,11.9,0.8,19,1,
3,CHN,LUSI,32.07,121.60,16.7,10.7,0.5,32,-10,
3,CHN,LUXI,24.53,103.77,16.6,6.5,1.3,14,17,
3,CHN,LUZHOU,28.88,105.43,19.6,9.1,0.8,21,1,
3,CHN,MACHENG,31.18,114.97,18.6,11.3,0.4,25,9,
3,CHN,MADOI,34.92,98.22,-1.2,6.9,-0.2,31,13,
3,CHN,MANDAL,42.53,110.13,8.5,16.3,-1.2,22,22,
3,CHN,MANGNAI,38.25,90.85,6.9,12.9,-1.1,23,35,
3,CHN,MAZONG-SHAN,41.80,97.03,7.9,15.1,-1.2,22,24,
3,CHN,MEIXIAN,24.30,116.12,22.8,7.8,1.5,25,12,
3,CHN,MENGJIN,34.82,112.43,15.8,12.1,1.1,22,20,
3,CHN,MENGLA,21.50,101.58,23.5,3.9,1.6,8,8,
3,CHN,MENGSHAN,24.20,110.52,21.6,8.0,1.2,25,11,
3,CHN,MENGZI,23.38,103.38,20.3,4.7,1.1,11,6,
3,CHN,MIANYANG,31.45,104.73,18.2,9.3,0.7,20,8,
3,CHN,MINQIN,38.63,103.08,11.4,15.9,0.9,19,29,
3,CHN,MOHE,52.13,122.52,1.7,12.7,-0.8,29,17,
3,CHN,MUDANJIANG,44.57,129.60,7.5,14.5,-1.6,29,20,
3,CHN,NAGQU,31.48,92.07,1.0,6.9,1.0,34,-32,
3,CHN,NANCHANG,28.60,115.92,19.5,10.4,1.0,25,3,
3,CHN,NANCHENG,27.58,116.65,19.4,10.5,1.0,22,1,
3,CHN,NANCHONG,30.80,106.08,18.9,9.9,0.8,20,4,
3,CHN,NANJING,32.00,118.80,17.1,11.5,0.6,26,-1,
3,CHN,NANNING,22.63,108.22,23.1,7.3,1.2,24,16,
3,CHN,NANPING,26.63,118.00,21.5,8.6,0.8,24,-5,
3,CHN,NANYANG,33.03,112.58,16.6,11.9,0.6,20,15,
3,CHN,NANYUE,27.30,112.70,13.9,9.2,1.0,24,25,
3,CHN,NAPO,23.30,105.95,20.3,6.2,0.8,19,15,
3,CHN,NARAN-BULAG,44.62,114.15,4.9,16.5,1.4,25,-30,
3,CHN,NEIJIANG,29.58,105.05,19.3,8.9,0.6,21,-4,
3,CHN,NENJIANG,49.17,125.23,4.7,14.2,-1.7,29,25,
3,CHN,NYINGCHI,29.57,94.47,11.3,7.3,0.9,24,0,
3,CHN,OTOG-QI,39.10,107.98,10.0,15.7,-0.2,20,5,
3,CHN,PAGRI,27.73,89.08,1.9,5.9,1.0,39,-30,
3,CHN,PINGLIANG,35.55,106.67,10.9,12.6,0.8,21,35,
3,CHN,PINGTAN,25.52,119.78,20.9,8.1,-0.1,40,0,
3,CHN,PINGWU,32.42,104.52,17.4,9.5,0.7,18,1,
3,CHN,PISHAN,37.62,78.28,15.1,16.4,1.8,14,10,
3,CHN,PUCHENG,27.92,118.53,19.2,9.5,1.0,24,6,
3,CHN,QAMDO,31.15,97.17,10.3,9.3,1.0,20,8,
3,CHN,QIAN-GORLOS,45.08,124.87,8.7,14.9,-1.5,26,15,
3,CHN,QINGDAO,36.07,120.33,14.3,11.3,1.1,31,-9,
3,CHN,QINGJIANG,33.60,119.03,16.1,11.6,0.8,26,7,
3,CHN,QINGLONG,40.40,118.95,11.2,14.8,0.6,21,41,
3,CHN,QINGYUAN,42.10,124.95,8.7,14.6,-1.3,25,17,
3,CHN,QINZHOU,21.95,108.62,23.3,7.0,1.7,27,21,
3,CHN,QIONGHAI,19.23,110.47,25.4,4.7,1.0,17,17,
3,CHN,QIQIHAR,47.38,123.92,7.0,14.7,-1.6,28,25,
3,CHN,QITAI,44.02,89.57,8.8,17.9,0.5,24,3,
3,CHN,QUMARLEB,34.13,95.78,0.6,6.9,0.2,34,8,
3,CHN,QUXIAN,28.97,118.87,18.9,10.5,0.5,26,-1,
3,CHN,RIZHAO,35.43,119.53,14.5,11.6,1.1,30,0,
3,CHN,RONGJIANG,25.97,108.53,20.5,8.9,0.9,23,19,
3,CHN,RUILI,24.02,97.83,22.4,5.0,1.5,11,11,
3,CHN,RUOERGAI,33.58,102.97,3.9,8.4,-1.3,33,36,
3,CHN,RUOQIANG,39.03,88.17,15.4,17.3,1.7,15,16,
3,CHN,SANGZHI,29.40,110.17,18.6,10.1,0.4,23,6,
3,CHN,SANHU-DAO,16.53,111.62,27.6,2.7,0.9,12,31,
3,CHN,SANSUI,26.97,108.67,16.6,9.9,0.6,24,27,
3,CHN,SERTAR,32.28,100.33,3.3,8.0,1.1,34,-40,
3,CHN,SHACHE,38.43,77.27,14.7,16.2,1.9,14,18,
3,CHN,SHANGCHUAN-DAO,21.73,112.77,23.5,6.3,-0.1,30,-8,
3,CHN,SHANGHAI-HONGQIAO,31.17,121.43,18.3,11.0,0.5,29,-1,
3,CHN,SHANGHAI,31.40,121.47,18.5,10.8,0.9,29,5,
3,CHN,SHANGZHI,45.22,127.97,6.4,14.4,-1.7,28,21,
3,CHN,SHANTOU,23.40,116.68,22.8,6.8,0.7,31,26,
3,CHN,SHANWEI,22.78,115.37,23.1,6.5,1.1,32,24,
3,CHN,SHAOGUAN,24.80,113.58,21.7,8.9,1.2,26,11,
3,CHN,SHAOWU,27.33,117.47,20.2,9.3,1.0,26,-6,
3,CHN,SHAOYANG,27.23,111.47,19.0,10.2,0.6,25,7,
3,CHN,SHENGSI,30.73,122.45,17.6,9.6,0.3,37,2,
3,CHN,SHENGXIAN,29.60,120.82,18.5,10.9,0.7,25,0,
3,CHN,SHENYANG,41.73,123.52,10.3,15.3,-0.5,26,2,
3,CHN,SHENZHEN,22.55,114.10,23.9,6.7,1.2,28,15,
3,CHN,SHEYANG,33.77,120.25,15.6,11.3,0.4,28,2,
3,CHN,SHIJIAZHUANG,38.03,114.42,15.3,14.0,1.3,19,10,
3,CHN,SHIPU,29.20,121.95,17.9,9.7,0.5,35,10,
3,CHN,SHIQUANHE,32.50,80.08,3.1,9.7,-2.1,36,43,
3,CHN,SHISANJIANFANG,43.22,91.73,12.0,17.9,1.2,19,9,
3,CHN,SIMAO,22.77,100.98,20.2,4.6,1.5,7,9,
3,CHN,SINAN,27.95,108.25,19.0,9.5,0.8,24,10,
3,CHN,SIPING,43.18,124.33,9.4,14.6,-1.0,26,7,
3,CHN,SOGXIAN,31.88,93.78,4.7,9.4,-1.4,31,40,
3,CHN,SONGPAN,32.65,103.57,9.8,8.3,0.7,19,-17,
3,CHN,SUIFENHE,44.38,131.15,5.9,12.9,-1.9,31,29,
3,CHN,SUNWU,49.43,127.35,4.0,14.0,-1.4,29,29,
3,CHN,TACHENG,46.73,83.00,9.8,14.4,-0.7,22,-12,
3,CHN,TAI-SHAN,36.25,117.10,7.9,11.1,-0.8,28,10,
3,CHN,TAILAI,46.40,123.42,8.3,15.1,-1.5,26,11,
3,CHN,TAIYUAN,37.78,112.55,12.5,13.9,0.7,18,19,
3,CHN,TANGSHAN,39.67,118.15,13.4,14.3,1.3,21,17,
3,CHN,TENGCHONG,25.12,98.48,17.1,5.4,1.4,22,13,
3,CHN,TIANJIN,39.10,117.17,14.4,14.5,1.4,20,6,
3,CHN,TIANMU-SHAN,30.35,119.42,11.2,9.5,0.0,27,2,
3,CHN,TIANSHUI,34.58,105.75,13.5,12.7,1.3,18,7,
3,CHN,TIKANLIK,40.63,87.70,14.8,17.6,1.5,15,11,
3,CHN,TINGRI,28.63,87.08,6.2,9.6,-0.5,32,7,
3,CHN,TONGDAO,26.17,109.78,18.3,9.6,1.2,23,1,
3,CHN,TONGDE,35.27,100.65,3.4,8.9,-1.4,30,46,
3,CHN,TONGHE,45.97,128.73,6.2,14.4,-1.7,29,30,
3,CHN,TONGLIAO,43.60,122.27,9.6,14.7,-1.3,24,4,
3,CHN,TULIHE,50.45,121.70,1.1,11.8,-1.0,30,6,
3,CHN,TUOTUOHE,34.22,92.43,-0.7,6.5,0.2,32,7,
3,CHN,TURPAN,42.93,89.20,17.8,19.6,2.4,13,9,
3,CHN,ULIASTAI,45.52,116.97,5.3,16.9,1.6,24,-31,
3,CHN,URUMQI,43.80,87.65,9.8,16.9,-0.4,24,1,
3,CHN,WANYUAN,32.07,108.03,16.9,10.3,0.2,20,10,
3,CHN,WEICHANG,41.93,117.75,8.1,13.9,-1.5,26,14,
3,CHN,WEIFANG,36.77,119.18,14.3,12.8,0.9,23,5,
3,CHN,WEINING,26.87,104.28,12.7,6.8,0.9,19,14,
3,CHN,WENZHOU,28.02,120.67,19.7,9.4,0.5,35,31,
3,CHN,WUDAOLIANG,35.22,93.08,-2.4,7.4,0.7,33,43,
3,CHN,WUDU,33.40,104.92,16.8,10.5,1.0,18,7,
3,CHN,WUGANG,26.73,110.63,18.6,10.2,0.9,24,24,
3,CHN,WUHAN,30.62,114.13,18.7,11.7,0.7,23,10,
3,CHN,WUHU,31.33,118.35,17.6,11.4,0.8,24,7,
3,CHN,WUSHAOLING,37.20,102.87,2.1,7.5,-1.1,34,51,
3,CHN,WUTAI-SHAN,38.95,113.52,1.5,8.4,-0.9,31,33,
3,CHN,WUYISHAN,27.77,118.03,20.2,9.3,1.1,26,9,
3,CHN,WUZHOU,23.48,111.30,23.3,7.6,1.2,29,27,
3,CHN,XAINZA,30.95,88.63,2.5,7.2,-1.7,34,48,
3,CHN,XI-UJIMQIN-QI,44.58,117.60,5.5,13.6,-2.0,31,27,
3,CHN,XIAMEN,24.48,118.08,22.4,7.3,0.8,37,41,
3,CHN,XIAN,34.30,108.93,15.7,12.1,0.8,17,-8,
3,CHN,XIAOERGOU,49.20,123.72,4.7,14.6,-1.5,29,27,
3,CHN,XICHANG,27.90,102.27,19.5,6.4,0.9,7,-5,
3,CHN,XIFENGZHEN,35.73,107.63,10.8,12.2,0.5,19,9,
3,CHN,XIGAZE,29.25,88.88,10.3,8.9,1.3,15,-17,
3,CHN,XIHUA,33.78,114.52,16.3,12.3,0.6,20,17,
3,CHN,XILIN-HOT,43.95,116.12,6.2,16.7,-0.2,26,0,
3,CHN,XIN-BARAG-YOUQI,48.67,116.82,4.6,17.5,1.1,24,-33,
3,CHN,XINGREN,25.43,105.18,17.0,7.2,1.3,19,14,
3,CHN,XINGTAI,37.07,114.50,16.3,13.5,1.1,19,7,
3,CHN,XINING,36.62,101.77,9.0,11.7,0.4,19,-5,
3,CHN,XINXIAN,36.23,115.67,15.0,13.1,1.1,20,11,
3,CHN,XINYANG,32.13,114.05,17.1,11.5,0.3,20,7,
3,CHN,XINYI,22.35,110.93,23.9,6.2,1.2,27,26,
3,CHN,XISHA-DAO,16.83,112.33,27.6,2.6,0.7,15,24,
3,CHN,XIUSHUI,29.03,114.58,19.0,10.6,0.8,23,4,
3,CHN,XUNWU,24.95,115.65,20.6,8.5,1.4,23,9,
3,CHN,XUZHOU,34.28,117.15,16.6,12.0,0.8,20,8,
3,CHN,YA'AN,29.98,103.00,17.9,9.3,0.8,19,9,
3,CHN,YAN'AN,36.60,109.50,12.3,13.2,0.8,17,7,
3,CHN,YANCHI,37.80,107.38,11.1,15.3,1.1,20,30,
3,CHN,YANGCHENG,35.48,112.40,14.0,12.5,0.7,19,5,
3,CHN,YANGJIANG,21.87,111.97,23.5,6.1,1.2,29,23,
3,CHN,YANJI,42.87,129.50,8.3,14.3,-1.2,28,25,
3,CHN,YANZHOU,35.57,116.85,15.6,12.6,1.1,20,-7,
3,CHN,YAXIAN,18.23,109.52,27.2,3.4,1.0,15,23,
3,CHN,YIBIN,28.80,104.60,20.0,9.0,0.8,20,6,
3,CHN,YICHANG,30.70,111.30,18.7,10.7,0.4,25,7,
3,CHN,YICHUN(HEILONGJ),47.72,128.90,5.5,14.2,-1.5,28,29,
3,CHN,YICHUN(JIANGXI),27.80,114.38,18.8,10.4,0.6,24,-4,
3,CHN,YINCHUAN,38.47,106.20,12.6,15.4,1.1,17,27,
3,CHN,YINGKOU,40.67,122.20,11.3,14.6,0.2,25,-7,
3,CHN,YINING,43.95,81.33,11.3,14.3,0.9,22,34,
3,CHN,YIWU,43.27,94.70,6.6,14.6,-0.9,25,24,
3,CHN,YIYUAN,36.18,118.15,14.1,13.5,1.5,20,16,
3,CHN,YONGAN,25.97,117.35,21.0,8.7,1.0,23,13,
3,CHN,YOUYANG,28.83,108.77,17.1,9.3,0.2,24,6,
3,CHN,YUANJIANG,23.60,101.98,25.6,5.4,1.5,8,5,
3,CHN,YUANLING,28.47,110.40,18.6,9.9,0.6,24,7,
3,CHN,YUANMOU,25.73,101.87,22.8,5.6,1.7,6,-2,
3,CHN,YUANPING,38.75,112.70,11.5,14.2,0.9,20,46,
3,CHN,YUEYANG,29.38,113.08,18.9,10.8,0.5,26,29,
3,CHN,YULIN,38.23,109.70,11.7,16.2,0.6,19,31,
3,CHN,YUMENZHEN,40.27,97.03,10.1,15.9,-0.9,22,-26,
3,CHN,YUNCHENG,35.05,111.05,15.8,13.2,0.9,17,2,
3,CHN,YUSHE,37.07,112.98,11.1,13.7,0.8,21,33,
3,CHN,YUSHU,33.02,97.02,6.4,9.8,-1.0,23,27,
3,CHN,YUXIAN,39.83,114.57,10.4,14.8,0.1,21,5,
3,CHN,ZADOI,32.90,95.30,2.8,9.1,1.6,34,-34,
3,CHN,ZAOYANG,32.15,112.67,17.7,11.1,0.8,25,14,
3,CHN,ZHANG-PING,25.30,117.40,22.5,7.7,1.0,26,8,
3,CHN,ZHANGJIAKOU,40.78,114.88,11.1,14.7,0.0,22,9,
3,CHN,ZHANGWU,42.42,122.53,10.4,14.7,-0.5,25,0,
3,CHN,ZHANGYE,38.93,100.43,11.4,15.2,0.9,17,18,
3,CHN,ZHANJIANG,21.22,110.40,24.2,6.1,0.9,25,28,
3,CHN,ZHANYI,25.58,103.83,16.0,6.1,1.3,10,8,
3,CHN,ZHAOTONG,27.33,103.75,14.0,7.9,0.7,18,-2,
3,CHN,ZHENGZHOU,34.72,113.65,16.4,12.4,0.8,18,-1,
3,CHN,ZHIJIANG,27.45,109.68,18.5,10.2,0.5,22,7,
3,CHN,ZHONGNING,37.48,105.68,13.0,14.9,1.4,16,17,
3,CHN,ZHONGXIANG,31.17,112.57,18.0,11.2,0.8,24,13,
3,CHN,ZHUMADIAN,33.00,114.02,16.6,11.9,0.4,23,1,
3,CHN,ZUNYI,27.70,106.88,17.2,9.4,0.5,24,17,
3,IND,AGARTALA,23.88,91.25,26.6,5.2,2.1,11,14,
3,IND,AHMADABAD,23.07,72.63,29.8,5.5,3.0,-4,22,
3,IND,AKOLA,20.70,77.07,30.1,4.6,3.1,-26,23,
3,IND,AMRITSAR,31.63,74.87,24.3,10.2,2.0,13,20,
3,IND,AURANGABAD-CHIKALTH,19.85,75.40,28.1,4.1,3.0,-30,20,
3,IND,BALASORE,21.52,86.93,27.6,4.4,2.3,1,13,
3,IND,BANGALORE,12.97,77.58,25.1,2.1,2.0,-47,10,
3,IND,BELGAUM-SAMBRA,15.85,74.62,24.7,2.1,1.7,-54,14,
3,IND,BHOPAL-BAIRAGARH,23.28,77.35,27.3,5.7,3.1,-12,24,
3,IND,BHUBANESWAR,20.25,85.83,27.6,3.4,1.9,-8,15,
3,IND,BHUJ-RUDRAMATA,23.25,69.67,28.3,5.9,3.2,6,19,
3,IND,BIKANER,28.00,73.30,28.9,9.6,2.5,8,22,
3,IND,BOMBAY-SANTACRUZ,19.12,72.85,28.2,2.1,1.7,4,30,
3,IND,CALCUTTA-DUM-DUM,22.65,88.45,27.8,4.6,2.4,0,12,
3,IND,CHITRADURGA,14.23,76.43,27.8,2.7,1.8,-59,10,
3,IND,COCHIN-WILLINGDON,9.95,76.27,27.9,0.7,1.0,-68,18,
3,IND,COIMBATORE-PEELAMED,11.03,77.05,27.2,1.5,1.6,-45,14,
3,IND,CUDDALORE,11.77,79.77,29.6,2.4,0.6,1,25,
3,IND,CWC-VISHAKHAPATNAM,17.70,83.30,28.6,2.3,1.2,1,15,
3,IND,DEHRADUN,30.32,78.03,23.0,7.6,2.1,8,22,
3,IND,GADAG,15.42,75.63,28.0,2.6,2.0,-60,9,
3,IND,GAUHATI,26.10,91.58,25.3,5.3,1.6,17,11,
3,IND,GOA-PANJIM,15.48,73.82,27.9,0.9,1.1,-22,24,
3,IND,GWALIOR,26.23,78.25,28.6,8.9,2.7,2,20,
3,IND,HISSAR,29.17,75.73,29.0,10.2,3.0,9,25,
3,IND,HYDERABAD-AP,17.45,78.47,27.4,4.0,1.9,-32,19,
3,IND,INDORE,22.72,75.80,26.9,5.2,3.2,-14,26,
3,IND,JABALPUR,23.20,79.95,27.8,6.4,2.7,-7,22,
3,IND,JAGDALPUR,19.08,82.03,26.6,3.9,2.2,-18,12,
3,IND,JAIPUR-SANGANER,26.82,75.80,28.2,8.1,2.8,2,26,
3,IND,JODHPUR,26.30,73.02,29.9,7.7,3.0,5,24,
3,IND,KAKINADA,16.95,82.23,29.5,3.4,1.1,-6,22,
3,IND,KOTA-AERODROME,25.15,75.85,29.7,7.3,3.4,-1,27,
3,IND,KOZHIKODE,11.25,75.78,28.3,-1.4,1.3,98,21,
3,IND,KURNOOL,15.80,78.07,31.5,3.2,2.2,-40,16,
3,IND,LUCKNOW-AMAUSI,26.75,80.88,27.6,8.2,2.8,4,23,
3,IND,MACHILIPATNAM,16.20,81.15,29.2,2.9,1.2,-9,22,
3,IND,MADRAS- MINAMBAKKAM,13.00,80.18,29.1,2.7,0.8,-3,25,
3,IND,MANGALORE-BAJPE,12.92,74.88,27.5,-0.8,1.1,88,24,
3,IND,MINICOY,8.30,73.15,29.1,0.7,0.9,-28,28,
3,IND,NAGPUR-SONEGAON,21.10,79.05,29.2,5.5,3.2,-21,24,
3,IND,NELLORE,14.45,79.98,30.3,3.5,1.2,-7,20,
3,IND,NEW-DELHI-SAFDARJUN,28.58,77.20,25.9,8.9,2.5,7,25,
3,IND,PATIALA,30.33,76.47,24.9,9.2,2.1,11,19,
3,IND,PATNA,25.60,85.10,26.8,6.9,2.5,6,19,
3,IND,PBO-ANANTAPUR,14.58,77.63,30.5,3.4,1.8,-37,14,
3,IND,POONA,18.53,73.85,25.9,3.3,2.5,-20,16,
3,IND,RAJKOT,22.30,70.78,29.3,4.4,2.9,-4,25,
3,IND,RATNAGIRI,16.98,73.33,27.7,1.3,1.3,-13,36,
3,IND,SHOLAPUR,17.67,75.90,30.7,3.5,2.5,-40,18,
3,IND,SRINAGAR,34.08,74.83,15.9,11.1,1.2,19,-5,
3,IND,SURAT,21.20,72.83,30.1,3.8,2.5,-4,25,
3,IND,THIRUVANANTHAPURAM,8.48,76.95,28.7,-1.6,0.5,79,33,
3,IND,TIRUCHCHIRAPALLI,10.77,78.72,29.4,2.9,1.2,-10,12,
3,IND,VERAVAL,20.90,70.37,29.0,3.1,1.8,14,27,
3,IOT,DIEGO-GARCIA-NAF,-7.30,72.40,27.7,-0.6,0.3,26,7,
3,IRN,ABADAN,30.37,48.25,27.1,12.4,1.3,20,0,
3,IRN,AHWAZ,31.33,48.67,28.3,12.7,1.1,21,4,
3,IRN,ANZALI,37.47,49.47,19.2,10.4,-0.3,28,-5,
3,IRN,ARAK,34.10,49.77,17.7,13.4,0.7,22,2,
3,IRN,BABULSAR,36.72,52.65,19.7,10.5,0.6,29,-21,
3,IRN,BANDARABBASS,27.22,56.37,28.8,8.4,1.1,21,14,
3,IRN,BIRJAND,32.87,59.20,19.7,12.2,1.0,13,18,
3,IRN,KASHAN,33.98,51.45,23.7,13.8,1.2,18,-7,
3,IRN,KERMANSHAH,34.27,47.12,18.4,13.4,0.9,24,-27,
3,IRN,KERMAN,30.25,56.97,20.2,11.6,0.7,16,14,
3,IRN,KHOY,38.55,44.97,16.9,14.9,1.2,21,20,
3,IRN,MASHHAD,36.27,59.63,17.9,13.0,0.0,19,1,
3,IRN,ORUMIEH,37.53,45.08,14.6,13.5,1.1,22,-9,
3,IRN,RAMSAR,36.90,50.67,18.5,10.1,0.1,31,12,
3,IRN,SABZEVAR,36.22,57.67,20.1,12.9,0.7,16,-18,
3,IRN,SHAHRUD,36.42,54.95,18.0,13.0,1.6,18,2,
3,IRN,SHIRAZ,29.53,52.53,22.1,12.1,0.8,22,-6,
3,IRN,TABRIZ,38.08,46.28,15.6,13.5,1.0,25,-19,
3,IRN,TEHRAN-MEHRABAD,35.68,51.32,19.8,13.4,1.0,22,-3,
3,IRN,TORBAT-HEYDARIEH,35.27,59.22,17.6,12.7,1.2,18,4,
3,IRN,ZAHEDAN,29.47,60.88,22.2,11.5,1.3,13,11,
3,IRN,ZANJAN,36.68,48.48,13.6,13.9,0.8,24,17,
3,JPN,ABASHIRI,44.02,144.28,8.0,11.6,-0.1,40,2,
3,JPN,AIKAWA,38.03,138.23,14.7,10.3,0.1,39,11,
3,JPN,AKITA,39.72,140.10,12.9,11.3,0.7,34,-13,
3,JPN,AOMORI,40.82,140.77,11.6,11.0,0.8,34,-11,
3,JPN,ASAHIKAWA,43.77,142.37,8.7,13.3,-1.3,33,20,
3,JPN,CHOSHI,35.73,140.85,16.5,8.2,0.8,39,-1,
3,JPN,FUKUE,32.70,128.83,17.7,8.8,0.5,37,-17,
3,JPN,FUKUOKA,33.58,130.38,17.9,9.8,0.6,33,-27,
3,JPN,FUTENMA,26.27,127.75,23.0,5.7,0.4,40,-4,
3,JPN,HACHIJOJIMA-AP,33.12,139.78,19.5,7.5,0.6,41,-4,
3,JPN,HACHIJOJIMA,33.12,139.78,19.2,7.5,0.6,42,-8,
3,JPN,HACHINOHE,40.53,141.52,11.5,10.4,0.8,36,-2,
3,JPN,HAKODATE,41.82,140.75,10.3,12.0,0.8,35,0,
3,JPN,HAMADA,34.90,132.07,16.4,9.4,0.8,35,-35,
3,JPN,HIROSHIMA,34.40,132.47,17.4,10.4,0.5,33,-18,
3,JPN,ISHIGAKIJIMA,24.33,124.17,24.6,5.2,-0.4,33,-40,
3,JPN,IWAKUNI,34.15,132.23,16.8,9.9,0.5,35,-21,
3,JPN,IZUHARA,34.20,129.30,16.8,9.2,0.9,35,-11,
3,JPN,KAGOSHIMA,31.55,130.55,19.6,9.0,0.8,34,-7,
3,JPN,KANAZAWA,36.58,136.63,15.9,10.7,0.6,35,-42,
3,JPN,KOFU,35.67,138.55,16.4,10.8,0.9,27,-11,
3,JPN,KUMAMOTO,32.82,130.70,18.1,10.2,0.9,32,-10,
3,JPN,KUSHIRO,42.98,144.38,7.3,10.4,0.7,44,-37,
3,JPN,MAEBASHI,36.40,139.07,15.9,10.6,0.6,33,-2,
3,JPN,MAIZURU,35.45,135.32,15.6,10.4,0.7,33,-22,
3,JPN,MATSUE,35.45,133.07,16.0,10.1,0.6,33,-19,
3,JPN,MATSUMOTO,36.25,137.97,12.9,12.3,0.8,29,16,
3,JPN,MATSUYAMA,33.85,132.78,17.4,9.9,0.7,33,-20,
3,JPN,MINAMIDAITOJIMA,25.83,131.23,23.9,5.2,0.1,38,-11,
3,JPN,MIYAKOJIMA,24.80,125.28,24.0,5.3,0.4,35,27,
3,JPN,MIYAKO,39.65,141.97,12.0,10.1,0.9,36,-15,
3,JPN,MIYAZAKI,31.93,131.42,18.7,9.3,0.9,32,-12,
3,JPN,MORIOKA,39.70,141.17,11.5,12.1,0.4,31,6,
3,JPN,MUROTOMISAKI,33.25,134.18,17.7,8.4,0.6,37,-4,
3,JPN,NAGASAKI,32.73,129.87,18.2,9.7,0.7,33,-11,
3,JPN,NAGOYA,35.17,136.97,17.1,10.7,0.9,32,-16,
3,JPN,NAHA,26.20,127.68,23.6,5.6,0.1,38,-16,
3,JPN,NAZE,28.38,129.50,22.3,6.7,0.3,34,-17,
3,JPN,NEMURO,43.33,145.58,7.3,9.9,0.7,49,-11,
3,JPN,NIIGATA,37.92,139.05,14.9,10.8,0.7,34,-24,
3,JPN,OITA,33.23,131.62,17.4,9.6,0.5,34,-15,
3,JPN,OMAEZAKI,34.60,138.22,17.4,8.8,1.0,38,-3,
3,JPN,ONAHAMA,36.95,140.90,14.6,9.2,0.9,39,-5,
3,JPN,OSAKA,34.68,135.52,18.0,10.6,0.6,34,-16,
3,JPN,OSHIMA,34.75,139.38,17.1,8.3,0.7,37,-13,
3,JPN,OWASE,34.07,136.20,17.2,9.4,0.8,34,-10,
3,JPN,RUMOI,43.95,141.63,9.1,12.1,-0.4,38,20,
3,JPN,SAIGO,36.20,133.33,15.4,9.7,0.7,36,-26,
3,JPN,SAKATA,38.92,139.85,13.7,10.8,0.6,35,-18,
3,JPN,SAPPORO,43.07,141.33,9.9,12.5,0.0,35,-4,
3,JPN,SENDAI,38.27,140.90,13.5,10.0,0.6,35,5,
3,JPN,SHIMIZU,32.72,133.02,19.1,8.4,0.8,36,-8,
3,JPN,SHIMONOSEKI,33.95,130.93,17.7,9.5,0.3,36,2,
3,JPN,SHIONOMISAKI,33.45,135.77,18.3,8.4,1.0,38,-7,
3,JPN,SUTTSU,42.80,140.22,9.6,11.3,0.8,39,-2,
3,JPN,TAKADA,37.10,138.25,14.9,11.1,0.5,34,-23,
3,JPN,TAKAMATSU,34.32,134.05,17.5,10.5,0.2,33,0,
3,JPN,TANEGASHIMA,30.73,130.98,20.5,7.4,0.8,36,-12,
3,JPN,TOKYO,35.68,139.77,17.4,9.4,0.7,34,-4,
3,JPN,TOTTORI,35.48,134.20,16.1,10.4,0.5,33,-24,
3,JPN,URAKAWA,42.17,142.78,9.3,10.9,0.3,41,-11,
3,JPN,WAJIMA,37.40,136.90,14.7,10.4,0.6,36,-17,
3,JPN,WAKAMATSU,37.48,139.92,13.0,12.6,1.0,30,-2,
3,JPN,WAKKANAI,45.42,141.68,8.0,11.1,1.0,42,-32,
3,JPN,YOKOSUKA,35.28,139.67,17.4,9.0,0.6,36,-22,
3,KAZ,AKKOL,52.00,70.95,5.2,15.5,-1.0,25,18,
3,KAZ,AKKUDUK,42.97,54.12,15.6,15.9,-0.1,17,9,
3,KAZ,AKTOBE,50.28,57.15,7.1,14.3,-2.6,28,14,
3,KAZ,ALMATY,43.23,76.93,11.1,14.2,-0.3,21,9,
3,KAZ,ARALSKOE-MORE,46.78,61.65,11.1,18.3,-1.5,21,-8,
3,KAZ,ASTANA,51.13,71.37,5.7,13.3,-1.9,31,15,
3,KAZ,ATBASAR,51.82,68.37,5.6,13.2,-2.3,31,12,
3,KAZ,ATYRAU,47.12,51.92,11.6,15.9,-1.3,20,3,
3,KAZ,BALHASH,46.80,75.08,8.8,17.6,-0.8,24,11,
3,KAZ,BALKASINO,52.53,68.75,4.2,12.5,-2.3,30,11,
3,KAZ,BERLIK,49.88,69.52,6.2,14.1,-2.2,29,15,
3,KAZ,BLACOVESCHENKA,54.37,66.97,4.6,13.1,-2.1,31,16,
3,KAZ,BOLSHE-NARYMSKOE,49.20,84.52,5.7,14.4,-1.8,31,15,
3,KAZ,CARDARA,41.37,68.00,17.1,15.1,0.4,16,27,
3,KAZ,DZHAMBEJTY,50.25,52.57,8.3,14.5,-2.4,27,9,
3,KAZ,DZHUSALY,45.50,64.08,12.4,17.6,-1.9,20,-16,
3,KAZ,ESIL,51.88,66.33,6.0,13.9,-2.1,29,13,
3,KAZ,FORT-SHEVCHENKO,44.55,50.25,14.6,14.3,0.7,21,-19,
3,KAZ,IRTYSHSK,53.35,75.45,5.8,14.1,-2.1,29,18,
3,KAZ,KARAGANDA,49.80,73.15,5.9,13.0,-1.9,30,21,
3,KAZ,KAZALINSK,45.77,62.12,12.6,17.8,-1.1,17,-12,
3,KAZ,KOKPEKTY,48.75,82.37,5.2,14.3,-1.6,31,23,
3,KAZ,KOKSHETAY,53.28,69.38,5.5,15.4,-1.7,26,28,
3,KAZ,KUSTANAI,53.22,63.62,5.6,13.2,-2.3,31,15,
3,KAZ,KYZYLORDA,44.85,65.50,13.0,17.6,-1.5,18,-25,
3,KAZ,KZYLZAR,48.30,69.65,7.9,17.4,-1.7,24,4,
3,KAZ,LENINOGORSK,50.33,83.55,5.5,12.0,-2.2,31,22,
3,KAZ,MUGODZARSKAJA,48.63,58.50,8.5,14.3,-1.8,24,8,
3,KAZ,PAVLODAR,52.30,76.93,5.8,14.0,-2.5,28,16,
3,KAZ,PETROPAVLOVSK,54.83,69.15,4.5,12.8,-1.9,29,14,
3,KAZ,RUZAEVKA,52.82,66.97,5.2,13.6,-2.3,30,17,
3,KAZ,SAM,45.40,56.12,12.5,17.6,-1.1,19,-3,
3,KAZ,SEMIJARKA,50.87,78.35,6.5,14.6,-2.3,27,12,
3,KAZ,SEMIPALATINSK,50.42,80.30,7.4,14.1,-2.1,25,5,
3,KAZ,SUCINSK,52.95,70.22,4.4,12.6,-2.1,30,17,
3,KAZ,TAIPAK,49.05,51.87,11.1,17.0,-1.4,20,-1,
3,KAZ,TEMIR,49.15,57.12,7.2,14.3,-2.6,28,15,
3,KAZ,TORGAI,49.63,63.50,8.2,17.8,-1.6,25,5,
3,KAZ,TURKESTAN,43.27,68.22,16.0,16.4,1.0,14,15,
3,KAZ,UIL,49.07,54.68,9.0,16.8,-2.1,24,9,
3,KAZ,URALSK,51.25,51.28,7.5,14.1,-2.0,30,11,
3,KAZ,URDZHAR,47.12,81.62,8.5,15.5,-1.9,27,9,
3,KAZ,URICKY,53.32,65.55,5.2,13.2,-2.5,31,17,
3,KAZ,ZHALTYR,51.62,69.80,5.5,13.7,-2.1,30,15,
3,KAZ,ZHAMBYL,42.85,71.38,13.6,15.2,0.3,18,10,
3,KAZ,ZHARKENT,44.17,80.07,11.8,14.7,0.8,21,32,
3,KAZ,ZHARYK,48.85,72.87,6.9,13.9,-2.2,27,11,
3,KAZ,ZHEZKAZGAN,47.80,67.72,9.0,17.3,-1.1,21,2,
3,KAZ,ZLIKHA,45.25,67.07,12.2,17.4,-1.5,20,-14,
3,KGZ,BISHKEK,42.85,74.53,12.7,13.7,0.9,21,41,
3,KGZ,DZHALAL-ABAD,40.92,72.95,16.2,15.2,1.2,15,14,
3,KGZ,NARYN,41.43,76.00,7.9,15.1,0.0,25,6,
3,KGZ,TALAS,42.52,72.22,11.9,13.9,0.2,20,6,
3,KGZ,TIAN-SHAN,41.88,78.23,-4.0,9.3,-1.9,39,-41,
3,KGZ,TOKMAK,42.83,75.28,13.3,13.0,1.0,20,30,
3,KOR,ANDONG,36.57,128.72,13.1,13.3,1.0,25,17,
3,KOR,BUSAN,35.10,129.03,15.7,10.0,1.1,34,4,
3,KOR,CHEONGJU,36.63,127.45,13.9,13.2,1.1,24,9,
3,KOR,CHEORWON,38.15,127.30,11.5,13.8,0.7,24,6,
3,KOR,CHUNCHEON,37.90,127.73,12.6,14.1,0.9,25,22,
3,KOR,CHUPUNGNYEONG,36.22,128.00,12.8,12.8,1.0,25,14,
3,KOR,DAEGU,35.88,128.62,15.5,11.5,0.7,26,6,
3,KOR,DAEGWALLYEONG,37.68,128.77,8.9,11.6,-0.1,29,-9,
3,KOR,DAEJEON,36.37,127.37,13.8,13.0,1.2,26,4,
3,KOR,DONGHAE-RADAR,37.50,129.13,14.0,10.0,1.0,29,3,
3,KOR,GANGNEUNG,37.75,128.90,14.3,11.7,1.6,27,11,
3,KOR,GUNSAN,36.00,126.77,14.3,11.8,0.6,31,-5,
3,KOR,GWANGJU,35.17,126.90,15.2,11.5,1.0,27,0,
3,KOR,INCHEON,37.47,126.63,13.7,12.2,0.9,29,-5,
3,KOR,JEJU,33.52,126.53,16.6,9.6,0.6,35,-16,
3,KOR,JEONJU,35.82,127.15,14.8,13.0,1.2,26,6,
3,KOR,JINJU,35.20,128.12,14.4,11.9,1.1,26,-13,
3,KOR,MASAN,35.18,128.57,15.9,10.5,1.2,31,-9,
3,KOR,MOKPO,34.82,126.38,15.3,11.0,0.8,32,-4,
3,KOR,POHANG,36.03,129.38,15.6,10.5,1.1,26,-1,
3,KOR,SEOGWIPO,33.25,126.57,17.9,9.0,0.8,36,-10,
3,KOR,SEOSAN,36.77,126.50,13.2,12.1,0.8,28,-16,
3,KOR,SEOUL,37.57,126.97,13.8,13.1,1.5,25,7,
3,KOR,SOKCHO,38.25,128.57,13.3,11.1,1.5,29,6,
3,KOR,SUWON,37.27,126.98,13.5,13.0,1.1,25,3,
3,KOR,TONGYEONG,34.85,128.43,15.5,10.1,1.0,32,-6,
3,KOR,ULJIN,36.98,129.42,13.9,10.1,1.2,29,-7,
3,KOR,ULLEUNGDO,37.48,130.90,13.9,10.2,0.8,34,-4,
3,KOR,ULSAN,35.55,129.32,15.5,10.9,1.0,28,-9,
3,KOR,WANDO,34.40,126.70,15.5,10.1,1.1,31,-12,
3,KOR,WONJU,37.33,127.95,13.1,13.7,1.0,21,3,
3,KOR,YEONGWOL,37.18,128.47,12.2,13.6,1.2,25,17,
3,KOR,YEOSU,34.73,127.75,15.4,9.9,1.2,32,0,
3,KWT,KUWAIT-INTL-AP,29.22,47.98,27.6,12.0,1.0,21,3,
3,MAC,TAIPA-GRANDE,22.17,113.57,23.4,6.9,0.8,33,30,
3,MMR,YANGON,16.77,96.17,27.8,1.3,1.7,-53,15,
3,MNG,ALTAI,46.40,96.25,2.8,12.8,0.1,26,2,
3,MNG,ARVAIHEER,46.27,102.78,4.4,13.1,-1.7,24,37,
3,MNG,BAITAG,46.12,91.47,7.2,17.5,0.2,23,2,
3,MNG,BARUUN-URT,46.68,113.28,4.4,17.0,1.1,23,-28,
3,MNG,BARUUNHARAA,48.92,106.07,4.3,14.3,-1.7,27,29,
3,MNG,BARUUNTURUUN,49.65,94.40,1.3,18.7,2.7,22,18,
3,MNG,BAYAN-OVOO,47.78,112.12,4.1,13.9,-1.8,30,28,
3,MNG,BAYANBULAG,46.83,98.08,0.7,12.5,0.9,20,8,
3,MNG,BAYANDELGER,45.73,112.37,5.2,16.4,-0.1,23,11,
3,MNG,BAYANHONGOR,46.13,100.68,4.0,14.4,0.1,24,11,
3,MNG,BULGAN,48.80,103.55,3.3,12.2,-1.4,29,36,
3,MNG,CHOIBALSAN,48.08,114.55,4.4,17.2,0.1,23,6,
3,MNG,CHOIR,46.45,108.22,4.3,15.6,1.6,25,-31,
3,MNG,DALANZADGAD,43.58,104.42,8.0,16.0,-1.3,22,27,
3,MNG,DASHBALBAR,49.55,114.40,3.7,13.3,-1.6,31,24,
3,MNG,ERDENEMANDAL,48.53,101.38,3.2,11.4,-1.2,28,30,
3,MNG,GALUUT,46.70,100.13,1.3,11.8,-1.2,29,13,
3,MNG,HATGAL,50.43,100.15,-0.7,9.6,-0.3,28,13,
3,MNG,HOVD,48.02,91.57,5.4,16.8,0.9,22,-16,
3,MNG,HUJIRT,46.90,102.77,3.8,12.0,-1.9,29,24,
3,MNG,HUTAG,49.38,102.70,4.7,14.0,-1.4,24,20,
3,MNG,KHALKH-GOL,47.62,118.62,4.4,14.2,-1.7,30,25,
3,MNG,MAANTI,47.30,107.48,1.8,15.5,1.3,23,-18,
3,MNG,MANDALGOBI,45.77,106.28,4.7,15.2,0.1,22,6,
3,MNG,MATAD,47.17,115.63,4.8,16.0,-0.2,26,6,
3,MNG,MUREN,49.63,100.17,3.9,12.8,-1.2,26,24,
3,MNG,OMNO-GOBI,49.02,91.72,3.1,14.9,1.0,24,-14,
3,MNG,RINCHINLHUMBE,51.12,99.67,-0.3,12.6,-1.1,26,-4,
3,MNG,SAIKHAN-OVOO,45.45,103.90,6.1,16.9,0.2,23,9,
3,MNG,SAINSHAND,44.90,110.12,7.3,17.4,-0.9,23,44,
3,MNG,TARIALAN,49.57,102.00,3.1,12.0,-0.9,27,39,
3,MNG,TOSONTSENGEL,48.73,98.20,1.3,12.1,-0.2,29,17,
3,MNG,TSETSERLEG,47.45,101.47,3.7,10.6,-1.6,29,28,
3,MNG,TSOGT-OVOO,44.42,105.32,7.4,16.6,-1.6,23,40,
3,MNG,ULAANBAATAR,47.92,106.87,2.6,15.3,1.0,22,2,
3,MNG,ULAANGOM,49.80,92.08,1.3,19.0,2.9,25,26,
3,MNG,ULGI,48.93,89.93,4.5,13.9,-1.1,24,34,
3,MNG,ULIASTAI,47.75,96.85,2.6,12.3,-0.7,29,19,
3,MNG,UNDERKHAAN,47.32,110.63,3.3,13.5,-1.3,28,30,
3,MNG,ZAMYN-UUD,43.73,111.90,7.9,18.3,-0.3,23,3,
3,OMN,KHASAB,26.20,56.23,30.0,7.4,0.8,24,18,
3,OMN,MASIRAH,20.67,58.90,28.2,2.8,2.2,-2,32,
3,OMN,SALALAH,17.03,54.08,28.0,2.8,1.7,-12,37,
3,OMN,SEEB-INTL-AP,23.58,58.28,29.9,6.8,1.2,12,37,
3,OMN,SOHAR-MAJIS,24.47,56.63,28.9,7.2,0.8,18,36,
3,OMN,SUR,22.53,59.47,30.2,6.2,1.2,8,29,
3,OMN,THUMRAIT,17.67,54.02,27.7,5.3,1.6,9,24,
3,PAK,ISLAMABAD-AP,33.62,73.10,22.8,10.2,1.7,16,21,
3,PAK,KARACHI-AP,24.90,67.13,28.3,5.4,2.0,8,18,
3,PRK,ANJU,39.62,125.65,11.1,14.3,0.3,27,2,
3,PRK,CHANGJIN,40.37,127.25,5.5,12.4,-2.1,34,32,
3,PRK,CHANGJON,38.73,128.18,13.2,11.7,2.0,29,15,
3,PRK,CHONGJIN,41.78,129.82,10.4,12.9,0.4,29,3,
3,PRK,CHUNGGANG,41.78,126.88,9.3,16.0,-1.3,25,7,
3,PRK,HAEJU,38.03,125.70,12.5,13.3,1.4,28,9,
3,PRK,HAMHEUNG,39.93,127.55,12.0,13.1,1.1,27,14,
3,PRK,HUICHON,40.17,126.25,11.5,15.3,0.5,24,16,
3,PRK,HYESAN,41.40,128.17,8.0,15.3,-1.8,29,25,
3,PRK,KAESONG,37.97,126.57,12.1,13.8,0.9,26,22,
3,PRK,KANGGYE,40.97,126.60,11.5,15.9,-0.1,21,-3,
3,PRK,KIMCHAEK,40.67,129.20,10.3,12.2,0.7,33,-4,
3,PRK,KUSONG,39.98,125.25,10.6,14.7,-0.4,26,6,
3,PRK,NAMPO,38.72,125.38,12.1,13.6,1.1,29,20,
3,PRK,PUNGSAN,40.82,128.15,5.4,12.4,-1.9,33,29,
3,PRK,PYONGGANG,38.42,127.28,10.3,13.5,-0.1,29,-5,
3,PRK,PYONGYANG,39.03,125.78,11.8,14.2,0.5,26,16,
3,PRK,RYONGYON,38.15,124.88,12.0,13.1,0.8,27,17,
3,PRK,SAMJIYON,41.82,128.30,3.8,11.8,-1.6,34,34,
3,PRK,SARIWON,38.52,125.77,12.0,14.2,0.9,25,25,
3,PRK,SENBONG,42.32,130.40,8.8,12.6,-0.1,34,8,
3,PRK,SINGYE,38.50,126.53,11.6,13.9,0.9,27,17,
3,PRK,SINPO,40.03,128.18,11.2,12.4,0.7,32,0,
3,PRK,SINUIJU,40.10,124.38,10.9,14.0,0.5,27,1,
3,PRK,SUPUNG,40.45,124.93,10.7,14.7,0.0,25,8,
3,PRK,WONSAN,39.18,127.43,12.4,11.9,1.3,27,16,
3,PRK,YANGDOK,39.22,126.65,10.5,14.2,0.1,24,0,
3,QAT,DOHA-INTL-AP,25.25,51.57,28.9,8.9,0.8,25,20,
3,RUS,AGATA,66.88,93.47,-4.0,13.3,-2.8,41,-4,
3,RUS,AGINSKOE,51.10,114.52,2.7,12.5,-1.3,29,26,
3,RUS,AGZU,47.60,138.40,4.7,12.5,-2.0,33,44,
3,RUS,AJAN,56.45,138.15,0.5,8.5,1.0,40,-24,
3,RUS,AKJAR,51.87,58.18,5.2,12.7,-2.1,31,18,
3,RUS,AKSA,50.27,113.27,2.8,12.2,-1.1,29,38,
3,RUS,ALDAN,58.62,125.37,-0.7,11.6,-1.6,26,3,
3,RUS,ALEJSKAJA,52.52,82.77,5.3,13.3,-1.9,29,17,
3,RUS,ALEKSANDROVSK-SAHAL,50.90,142.17,3.5,10.8,-1.5,43,55,
3,RUS,ALEKSANDROVSKIJ-ZAV,50.92,117.93,1.7,11.4,-0.8,30,22,
3,RUS,ALEKSANDROVSKOE,60.43,77.87,2.4,11.2,-1.8,32,24,
3,RUS,AMDERMA,69.75,61.70,-3.7,8.8,-1.3,54,-17,
3,RUS,AMGA,60.90,131.98,-1.6,15.1,-2.3,27,-17,
3,RUS,ANADYR,64.78,177.57,-2.4,10.4,-3.0,45,3,
3,RUS,ANUCINO,43.97,133.07,6.9,14.5,-1.6,30,29,
3,RUS,ARHARA,49.42,130.08,4.4,14.0,-1.3,29,29,
3,RUS,ARKA,60.08,142.33,-0.4,11.3,-1.6,28,0,
3,RUS,ASTRAHANKA,44.72,132.07,7.2,14.0,-1.7,33,29,
3,RUS,BAEVO,53.27,80.77,4.8,12.8,-2.1,30,19,
3,RUS,BAGDARIN,54.47,113.58,-0.5,11.8,-1.4,24,-3,
3,RUS,BAJANDAJ,53.10,105.53,2.0,11.3,-0.8,28,22,
3,RUS,BAKALY,55.18,53.80,5.5,12.1,-2.2,28,8,
3,RUS,BAKCHAR,57.08,81.92,3.2,11.6,-1.5,28,34,
3,RUS,BALAGANSK,54.00,103.07,2.8,12.6,-1.5,31,28,
3,RUS,BARABINSK,55.33,78.37,4.0,12.7,-1.8,30,21,
3,RUS,BARNAUL,53.43,83.52,5.7,13.2,-2.2,29,12,
3,RUS,BATAMAJ,63.52,129.48,-2.8,15.1,-2.6,30,-10,
3,RUS,BEREZOVO,63.93,65.05,0.2,9.7,-1.2,32,14,
3,RUS,BIJSK-ZONALNAJA,52.68,84.95,5.5,13.2,-2.1,31,24,
3,RUS,BIKIN,46.80,134.27,6.9,14.5,-1.5,27,26,
3,RUS,BIROBIDZHAN,48.73,132.95,5.5,14.2,-1.8,29,31,
3,RUS,BIRSK,55.42,55.53,5.5,12.4,-2.3,28,19,
3,RUS,BLAGOVESCENSK,50.25,127.57,5.2,14.7,-2.0,28,28,
3,RUS,BODAJBO,57.85,114.23,1.2,12.2,-1.1,27,3,
3,RUS,BOGORODSKOE,52.38,140.47,2.9,12.4,-0.1,37,7,
3,RUS,BOGUCANY,58.38,97.45,1.9,11.9,-1.3,30,19,
3,RUS,BOLSHERECHE,56.10,74.63,4.1,12.4,-1.7,28,17,
3,RUS,BOLSOJ-SANTAR,54.83,137.53,-0.3,9.0,-0.1,38,1,
3,RUS,BOL`SIE-UKI,56.93,72.67,4.0,12.2,-1.8,29,21,
3,RUS,BOMNAK,54.72,128.93,2.2,13.1,-1.2,28,16,
3,RUS,BORZJA,50.40,116.52,3.1,12.8,-1.7,30,23,
3,RUS,BOR,61.60,90.02,1.6,10.9,-1.1,32,21,
3,RUS,BRATSK,56.28,101.75,2.5,11.2,-2.0,29,21,
3,RUS,BUGARIHTA,54.05,115.02,0.1,13.1,-1.3,24,-7,
3,RUS,BUGULMA,54.58,52.80,5.3,12.0,-2.1,29,19,
3,RUS,BURUKAN,53.05,136.03,1.2,11.8,-0.4,31,-4,
3,RUS,BUZULUK,52.82,52.22,6.7,13.6,-2.2,26,10,
3,RUS,CEMAL,51.43,86.00,6.5,13.0,-1.7,28,16,
3,RUS,CENTRALNYJ-RUDNIK,55.22,87.65,2.9,10.9,-2.0,32,33,
3,RUS,CERLAK,54.17,74.80,4.7,13.6,-1.9,30,24,
3,RUS,CERNUSKA,56.50,56.13,5.1,12.0,-1.7,28,20,
3,RUS,CHANY,55.28,76.60,4.4,12.7,-1.6,30,18,
3,RUS,CHARA,56.90,118.27,-1.2,12.8,-1.9,27,-6,
3,RUS,CHELJABINSK-BALANDI,55.30,61.53,5.0,12.0,-1.6,26,15,
3,RUS,CHERDYN,60.40,56.52,3.6,10.9,-2.5,28,27,
3,RUS,CHERNISHEVSKIJ,63.03,112.50,-1.4,12.1,-1.5,29,1,
3,RUS,CHERNJAEVO,52.78,126.00,2.8,13.7,-0.7,27,22,
3,RUS,CHERSKIJ,68.75,161.28,-4.4,13.6,-3.2,39,-7,
3,RUS,CHITA,52.08,113.48,3.3,13.1,-1.4,29,32,
3,RUS,CHOKURDAH,70.62,147.88,-6.2,14.1,-2.8,43,-13,
3,RUS,CJULBJU,57.77,130.90,-0.1,13.9,-1.8,26,-8,
3,RUS,CULMAN,56.83,124.87,-1.4,12.2,-1.3,27,1,
3,RUS,CULYM,55.10,80.97,4.1,12.0,-1.8,29,17,
3,RUS,CURAPCA,62.03,132.60,-2.1,15.4,-2.5,28,-11,
3,RUS,DALNERECHENSK,45.87,133.73,6.1,14.2,-1.9,31,28,
3,RUS,DEMJANSKOE,59.60,69.28,2.6,11.6,-1.9,28,28,
3,RUS,DUDINKA,69.40,86.17,-4.4,12.4,-3.4,50,2,
3,RUS,DUVAN,55.70,57.90,4.4,11.5,-2.1,28,23,
3,RUS,DZALINDA,53.47,123.90,2.9,12.6,-1.1,30,17,
3,RUS,DZARDZAN,68.73,124.00,-4.3,14.4,-2.7,33,-13,
3,RUS,EGVEKINOT,66.35,-179.12,-2.3,9.0,-2.8,45,-2,
3,RUS,EKATERINBURG,56.83,60.63,4.9,12.0,-2.0,27,25,
3,RUS,EKATERINO-NIKOLSKOE,47.73,130.97,5.8,14.0,-2.0,30,24,
3,RUS,EKIMCHAN,53.07,132.98,0.9,12.2,-0.8,27,2,
3,RUS,ELABUGA,55.77,52.07,5.7,12.2,-2.0,27,15,
3,RUS,ENISEJSK,58.45,92.15,2.2,11.6,-0.9,30,37,
3,RUS,ERBOGACEN,61.27,108.02,-1.1,11.8,-1.3,29,-4,
3,RUS,EROFEJ-PAVLOVIC,53.97,121.93,2.1,12.8,-1.6,27,13,
3,RUS,GAJNY,60.28,54.35,3.5,10.2,-1.8,28,33,
3,RUS,GARI,59.43,62.33,3.8,11.6,-1.5,27,22,
3,RUS,GLAZOV,58.13,52.58,4.6,11.4,-2.1,28,17,
3,RUS,GMO-IM-EK-FEDOROV,77.72,104.30,-10.7,13.3,-1.9,39,21,
3,RUS,GORIN,51.20,136.80,3.2,13.6,-1.1,32,25,
3,RUS,GORJACINSK,52.98,108.28,2.3,9.8,-1.6,40,44,
3,RUS,GVASJUGI,47.67,136.18,4.2,13.9,-1.6,31,36,
3,RUS,HABAROVSK,48.52,135.17,5.3,14.0,-1.8,33,27,
3,RUS,HADAMA,53.95,98.82,1.5,10.7,-1.4,30,15,
3,RUS,HANTY-MANSIJSK,61.02,69.03,2.2,11.2,-1.6,28,35,
3,RUS,HATANGA,71.98,102.47,-6.5,14.2,-2.3,43,-12,
3,RUS,HILOK,51.35,110.47,1.9,11.4,-1.3,30,10,
3,RUS,HOLMSK,47.05,142.05,6.3,11.4,-1.7,43,48,
3,RUS,HORINSK,52.17,109.78,2.8,12.2,-1.5,30,21,
3,RUS,HOSEDA-HARD,67.08,59.38,-1.6,9.3,-2.0,39,8,
3,RUS,HULARIN,51.42,135.08,3.3,13.0,-1.5,32,31,
3,RUS,IGNASINO,53.47,122.40,2.1,13.4,-1.4,28,11,
3,RUS,ILYINSKIY,47.98,142.20,4.9,10.5,1.9,47,-39,
3,RUS,IM-MV-POPOVA,73.33,70.05,-7.1,11.8,-0.9,51,-24,
3,RUS,IM-POLINY-OSIPENKO,52.42,136.50,2.8,12.9,0.0,32,3,
3,RUS,IRKUTSK,52.27,104.32,2.7,11.3,-1.1,29,34,
3,RUS,ISILKUL,54.90,71.25,4.1,12.2,-1.8,31,18,
3,RUS,ISIM,56.10,69.43,4.2,12.5,-1.9,31,19,
3,RUS,ISIT,60.82,125.32,-0.6,13.5,-1.9,28,-1,
3,RUS,IVDEL,60.68,60.45,2.6,11.3,-1.1,24,40,
3,RUS,IZHEVSK,56.83,53.45,5.1,12.0,-2.0,27,15,
3,RUS,JAKUTSK,62.02,129.72,-1.3,14.9,-2.0,26,-11,
3,RUS,JANAUL,56.27,54.90,4.9,12.1,-2.0,29,22,
3,RUS,JUZHNO-KURILSK,44.02,145.87,6.4,9.5,1.0,52,-27,
3,RUS,JUZHNO-SAHALINSK,46.95,142.72,4.7,10.8,2.1,43,-45,
3,RUS,KACUG,53.97,105.90,1.9,12.1,-0.8,28,3,
3,RUS,KAJLASTUJ,49.83,118.38,3.8,13.7,-1.5,29,28,
3,RUS,KALACINSK,55.03,74.58,4.3,12.7,-2.1,30,17,
3,RUS,KALAKAN,55.12,116.77,-0.6,13.0,-1.6,27,-4,
3,RUS,KAMEN-NA-OBI,53.82,81.27,4.4,13.2,-2.5,29,21,
3,RUS,KAMENSKOE,62.43,166.08,-1.9,10.7,-2.1,39,2,
3,RUS,KAMYSLOV,56.85,62.72,4.7,12.2,-2.0,26,18,
3,RUS,KARASUK,53.70,78.07,5.1,13.5,-2.1,28,17,
3,RUS,KARGASOK,59.05,80.95,2.5,11.7,-1.4,30,26,
3,RUS,KAZACHINSK,56.32,107.62,1.5,11.6,-1.1,30,9,
3,RUS,KEDON,64.00,158.92,-5.0,13.9,-2.7,35,-13,
3,RUS,KEMEROVO,55.23,86.12,3.8,12.0,-2.2,32,25,
3,RUS,KIRENSK,57.77,108.07,1.2,11.4,-1.0,30,14,
3,RUS,KIROVSKIJ,45.08,133.53,6.7,14.2,-1.8,31,28,
3,RUS,KIRS,59.37,52.22,4.0,10.7,-1.6,29,27,
3,RUS,KJAHTA,50.37,106.45,3.9,12.3,-1.7,28,29,
3,RUS,KJUSJUR,70.68,127.40,-5.2,14.2,-3.0,40,-15,
3,RUS,KLJUCHI,56.32,160.83,2.3,10.0,-1.4,40,44,
3,RUS,KLJUCI,52.25,79.13,6.3,13.8,-2.3,29,12,
3,RUS,KOCHKI,54.30,80.50,4.2,12.8,-2.0,30,18,
3,RUS,KOLBA,55.08,93.37,3.3,11.4,-1.9,30,23,
3,RUS,KOLPASEVO,58.32,82.95,2.4,11.5,0.0,30,-6,
3,RUS,KOLYVAN,55.30,82.75,4.2,12.5,-2.2,29,18,
3,RUS,KORF,60.35,166.00,0.0,8.1,-0.7,39,24,
3,RUS,KRASNOOZERSK,53.97,79.23,4.6,12.8,-1.8,30,20,
3,RUS,KRASNOUFIMSK,56.65,57.78,4.8,12.0,-2.1,28,18,
3,RUS,KRASNYJ-CHIKOJ,50.37,108.75,2.7,13.1,-0.9,29,28,
3,RUS,KRASNYJ-JAR,46.53,135.32,5.6,14.4,-1.9,26,35,
3,RUS,KRESCHENKA,55.85,80.03,3.7,11.9,-1.6,29,20,
3,RUS,KUDYMKAR,58.98,54.65,4.0,10.9,-2.0,25,26,
3,RUS,KUPINO,54.37,77.28,4.8,13.0,-2.0,29,16,
3,RUS,KURGAN,55.47,65.40,4.7,12.5,-1.9,28,18,
3,RUS,KUR,49.93,134.63,3.7,14.0,-1.2,30,28,
3,RUS,KYRA,49.57,111.97,3.6,13.1,-1.8,29,32,
3,RUS,KYSTOVKA,56.60,76.57,3.5,12.1,-1.7,31,17,
3,RUS,KYZYL,51.72,94.50,3.5,14.1,-0.5,28,12,
3,RUS,LENSK,60.72,114.88,0.3,11.9,-1.1,28,4,
3,RUS,LEUSI,59.62,65.72,3.6,12.2,-1.7,26,26,
3,RUS,LOSINOBORSKOE,58.43,89.37,2.5,10.9,-2.0,33,23,
3,RUS,MAGADAN,59.55,150.78,-0.5,8.6,-0.7,34,10,
3,RUS,MAGDAGACI,53.47,125.82,3.2,12.7,-1.8,30,17,
3,RUS,MAGNITOGORSK,53.35,59.08,5.2,12.5,-2.3,29,9,
3,RUS,MAJSK,57.78,77.28,3.2,11.5,-1.3,30,22,
3,RUS,MAKUSINO,55.25,67.30,5.2,13.0,-2.3,27,9,
3,RUS,MALYE-KARMAKULY,72.37,52.70,-2.3,6.5,-1.4,54,0,
3,RUS,MAMA,58.32,112.87,0.8,11.8,-1.1,29,13,
3,RUS,MARESALE,69.72,66.80,-4.8,10.3,-1.6,55,-9,
3,RUS,MARIINSK,56.22,87.75,4.4,12.3,-1.8,28,23,
3,RUS,MARKOVO,64.68,170.42,-2.8,12.4,-3.1,39,0,
3,RUS,MASLJANINO,54.33,84.22,4.0,12.1,-1.8,28,21,
3,RUS,MELEUZ,52.95,55.97,6.0,12.8,-2.1,30,17,
3,RUS,MOGOCA,53.75,119.73,1.3,12.0,-0.7,27,15,
3,RUS,MONDY,51.68,100.98,1.0,9.5,-1.0,32,4,
3,RUS,MUZI,65.38,64.72,-0.5,9.9,-1.9,33,6,
3,RUS,NAGORNYJ,55.97,124.88,-1.5,12.1,-1.5,27,-10,
3,RUS,NAPAS,59.85,81.95,2.2,11.2,-1.9,30,20,
3,RUS,NARJAN-MAR,67.63,53.03,-0.5,7.9,-1.5,36,7,
3,RUS,NAZYVOEVSK,55.57,71.37,3.9,12.3,-1.9,30,22,
3,RUS,NERCHINSKIJ-ZAVOD,51.32,119.62,2.6,12.2,-1.0,30,15,
3,RUS,NIKOLAEVSK-NA-AMURE,53.15,140.70,1.9,11.2,-0.1,36,7,
3,RUS,NIKOLSKOE,55.20,165.98,3.6,6.5,1.7,51,-38,
3,RUS,NIZHNEANGARSK,55.78,109.55,1.9,10.6,-1.5,38,31,
3,RUS,NIZHNEUDINSK,54.88,99.03,3.0,11.8,-1.4,28,34,
3,RUS,NJAKSIMVOL,62.43,60.87,1.7,10.8,-1.4,27,20,
3,RUS,NJURBA,63.28,118.33,-1.8,13.3,-1.7,28,-1,
3,RUS,NOGLIKI,51.92,143.13,2.0,9.5,1.3,43,-25,
3,RUS,NORSK,52.35,129.92,3.0,13.5,-1.2,30,13,
3,RUS,NOVOKUZNETSK,53.82,86.88,4.8,12.2,-2.1,29,24,
3,RUS,NOVOSELENGINSK,51.10,106.65,3.6,13.6,-1.3,28,21,
3,RUS,NOVOSIBIRSK,55.08,82.90,4.1,12.1,-2.0,31,19,
3,RUS,NOZOVKA,57.08,54.75,5.3,12.1,-1.8,26,15,
3,RUS,OBLUCE,49.00,131.08,3.9,13.6,-1.3,30,36,
3,RUS,ODESSKOE,54.20,72.97,4.8,13.2,-2.0,28,18,
3,RUS,OHANSK,57.72,55.38,5.2,11.9,-2.0,26,21,
3,RUS,OHOTSK,59.37,143.20,-0.1,9.0,-0.6,39,11,
3,RUS,OJMJAKON,63.25,143.15,-6.2,17.4,-3.7,35,-21,
3,RUS,OKTJABRSKOE,62.45,66.05,1.2,10.1,-1.7,32,21,
3,RUS,OLEKMINSK,60.40,120.42,0.2,12.7,-1.6,27,6,
3,RUS,OLENEK,68.50,112.43,-5.0,14.4,-3.0,36,-13,
3,RUS,OLOVJANNAJA,50.95,115.58,3.3,13.0,-1.5,30,26,
3,RUS,OMSK,55.02,73.38,4.7,13.0,-2.0,30,12,
3,RUS,ORDYNSKOE,54.37,81.95,4.5,12.6,-2.3,32,20,
3,RUS,ORENBURG,51.68,55.10,6.8,13.7,-2.4,28,11,
3,RUS,ORLINGA,56.05,105.83,1.5,12.0,-1.8,30,2,
3,RUS,OSTROV-DIKSON,73.50,80.40,-8.4,13.2,0.5,44,20,
3,RUS,OSTROV-GOLOMJANNYJ,79.55,90.62,-11.5,12.4,-2.3,35,13,
3,RUS,OSTROV-KOTELNYJ,76.00,137.87,-10.3,14.3,-0.7,42,-1,
3,RUS,OSTROV-VIZE,79.50,76.98,-10.2,11.3,-2.1,37,11,
3,RUS,OSTROV-VRANGELJA,70.98,-178.48,-7.6,11.5,-1.2,42,-25,
3,RUS,OZERNAJA,51.48,156.48,3.2,7.1,1.8,54,-29,
3,RUS,PARTIZANSK,43.15,133.02,7.0,13.1,-1.7,35,36,
3,RUS,PECHORA,65.12,57.10,0.8,9.4,-1.5,33,18,
3,RUS,PERM,57.95,56.20,4.4,11.9,-1.9,27,27,
3,RUS,PERVOMAJSKOE,57.07,86.22,3.6,12.2,-2.0,30,27,
3,RUS,PETROPAVLOVSK-KAMCH,53.08,158.58,3.6,8.6,2.1,43,-44,
3,RUS,PETROVSKIJ-ZAVOD,51.32,108.87,1.7,11.9,-0.7,29,13,
3,RUS,PILVO,50.05,142.17,3.6,10.4,-1.8,44,49,
3,RUS,POGIBI,52.22,141.63,1.8,10.1,1.3,46,-25,
3,RUS,POGRANICHNOE,50.40,143.77,1.5,8.1,1.4,47,-8,
3,RUS,POGRANICHNYJ,44.40,131.38,7.2,13.9,-1.5,31,25,
3,RUS,POJARKOVO,49.62,128.65,4.6,14.3,-1.4,30,34,
3,RUS,POKROVSKAJA,61.48,129.15,-1.7,14.7,-2.0,27,-11,
3,RUS,POLARGMO-IM-ET-K,80.62,58.05,-9.3,10.3,-2.2,40,13,
3,RUS,POLTAVKA,54.37,71.75,4.6,13.2,-1.9,30,22,
3,RUS,POLTAVKA,44.03,131.32,8.0,13.8,-1.0,28,19,
3,RUS,PORONAJSK,49.22,143.10,3.1,10.0,0.0,46,19,
3,RUS,POSET,42.65,130.80,8.7,13.0,1.0,33,-35,
3,RUS,PREOBRAZHENIE,42.90,133.90,7.1,12.0,1.4,40,-38,
3,RUS,PRIARGUNSK,50.40,119.07,2.8,13.5,-0.7,29,16,
3,RUS,PUDINO,57.53,79.37,2.7,11.7,-1.0,30,22,
3,RUS,REBRIHA,53.07,82.30,4.9,13.2,-2.4,28,18,
3,RUS,ROMANOVKA,53.20,112.78,1.2,11.7,-1.0,28,11,
3,RUS,RUBCOVSK,51.50,81.22,5.7,13.4,-2.3,29,16,
3,RUS,RUDNAJA-PRISTAN,44.37,135.85,6.3,11.5,-2.0,38,47,
3,RUS,SADRINSK,56.07,63.65,5.1,12.1,-1.8,27,8,
3,RUS,SAIM,60.32,64.22,3.9,11.7,-2.0,25,19,
3,RUS,SALEHARD,66.53,66.67,-1.7,10.3,-1.9,38,3,
3,RUS,SAMARA,53.25,50.45,6.4,12.5,-2.3,28,7,
3,RUS,SAMARY,57.35,58.22,4.4,12.0,-1.8,28,28,
3,RUS,SANGARY,63.97,127.47,-2.0,14.3,-2.2,30,-4,
3,RUS,SARAN-PAUL,64.28,60.88,0.8,10.2,-0.6,29,11,
3,RUS,SARGATSKOE,55.60,73.48,3.9,12.5,-1.8,30,15,
3,RUS,SEJMCHAN,62.92,152.42,-3.3,14.3,-2.9,33,-8,
3,RUS,SEKTAGLI,50.43,131.02,3.4,14.3,-1.3,28,38,
3,RUS,SELAGONCY,66.25,114.28,-4.7,15.1,-3.0,37,-12,
3,RUS,SEVERNOE,56.35,78.35,4.0,12.6,-1.9,29,19,
3,RUS,SEVERO-KURILSK,50.68,156.13,3.7,7.3,1.7,54,-33,
3,RUS,SHILKA,51.87,116.03,2.6,12.8,-1.1,28,35,
3,RUS,SIMUSIR,46.85,151.87,4.3,7.0,0.9,51,-29,
3,RUS,SLAVGOROD,52.97,78.65,5.4,14.0,-2.2,29,17,
3,RUS,SMIDOVICH,48.62,133.83,5.2,14.0,-1.5,31,29,
3,RUS,SOFIJSKIJ-PRIISK,52.27,133.98,0.1,12.2,-1.0,27,-7,
3,RUS,SOLNETHNAYA,54.03,108.27,2.0,9.7,-1.3,40,45,
3,RUS,SOLOVEVSK,49.90,115.75,3.2,13.2,-1.3,30,18,
3,RUS,SOSNOVO-OZERSKOE,52.53,111.55,1.3,10.7,-1.1,32,22,
3,RUS,SOSVA,63.65,62.10,1.6,11.0,-1.5,33,27,
3,RUS,SRETENSK,52.23,117.70,2.8,12.7,-1.3,28,26,
3,RUS,STERLITAMAK,53.58,56.00,6.5,13.4,-2.2,28,12,
3,RUS,SUMIHA,55.23,63.32,5.1,12.5,-2.0,25,9,
3,RUS,SUNTAR,62.15,117.65,-0.5,13.3,-1.6,26,1,
3,RUS,SURGUT,61.25,73.50,1.4,10.8,-1.8,32,22,
3,RUS,SYKTYVKAR,61.72,50.83,3.4,10.4,-2.1,27,28,
3,RUS,SYM,60.35,88.37,1.4,11.0,-1.6,31,15,
3,RUS,TAJSHET,55.95,98.00,3.3,11.8,-1.6,29,32,
3,RUS,TANGUJ,55.38,101.03,2.7,11.9,-1.5,31,23,
3,RUS,TANHOJ,51.57,105.12,3.0,9.9,-1.2,36,29,
3,RUS,TARA,56.90,74.38,3.7,12.1,-1.7,28,19,
3,RUS,TARKO-SALE,64.92,77.82,-1.0,10.6,-2.1,34,5,
3,RUS,TATARSK,55.20,75.97,4.2,12.9,-2.1,29,18,
3,RUS,TAZOVSKOE,67.47,78.73,-3.5,11.6,-2.4,45,5,
3,RUS,TERNEJ,45.00,136.60,5.9,11.5,-1.8,40,47,
3,RUS,TEVRIZ,57.52,72.40,4.0,11.8,-1.9,32,29,
3,RUS,TIKSI,71.58,128.92,-6.7,13.7,-2.3,47,-17,
3,RUS,TISUL,55.75,88.32,4.2,11.8,-1.6,30,15,
3,RUS,TIVJAKU,48.60,137.05,2.9,13.2,-1.1,30,37,
3,RUS,TJUKALINSK,55.87,72.20,4.2,12.5,-1.7,30,21,
3,RUS,TJUMEN,57.12,65.43,4.6,12.3,-1.8,27,22,
3,RUS,TOBOLSK,58.15,68.25,3.6,12.1,-1.9,26,25,
3,RUS,TOGUCHIN,55.23,84.40,4.0,12.0,-2.2,29,24,
3,RUS,TOKO,56.28,131.13,-3.4,14.4,-2.6,32,-11,
3,RUS,TOMPO,63.95,135.87,-4.8,16.3,-3.6,34,-12,
3,RUS,TOMSK,56.50,84.92,4.0,12.0,-1.9,30,26,
3,RUS,TROICKO-PECHERSKOE,62.70,56.20,1.9,10.0,-1.2,29,29,
3,RUS,TROICKOE,49.45,136.57,5.4,14.2,-1.7,33,29,
3,RUS,TROIZK,54.08,61.62,5.5,13.3,-1.9,29,12,
3,RUS,TULUN,54.60,100.63,2.7,11.2,-1.4,30,30,
3,RUS,TUNKA,51.73,102.53,2.8,12.4,-0.9,29,12,
3,RUS,TURIJ-ROG,45.22,131.98,7.3,14.2,-1.8,29,31,
3,RUS,TURINSK,58.05,63.68,4.2,12.1,-2.0,27,21,
3,RUS,TUROCAK,52.27,87.17,4.5,12.6,-1.8,30,26,
3,RUS,TURUHANSK,65.78,87.93,-1.5,11.2,-1.9,33,8,
3,RUS,TYNDA,55.18,124.67,1.1,12.6,-1.2,26,14,
3,RUS,UAKIT,55.47,113.62,-1.1,11.1,-1.2,27,-3,
3,RUS,UEGA,60.72,142.78,-0.5,11.0,-1.7,29,11,
3,RUS,UFA,54.72,55.83,5.9,12.8,-1.8,27,16,
3,RUS,UHTA,63.55,53.82,1.7,9.6,-1.5,31,38,
3,RUS,ULAN-UDE,51.83,107.60,3.4,13.4,-1.4,28,30,
3,RUS,ULETY,51.35,112.47,3.5,11.7,-1.9,30,26,
3,RUS,URMI,49.40,133.23,4.1,13.7,-1.6,30,36,
3,RUS,UST-BARGUZIN,53.42,109.02,1.7,10.5,-0.9,37,34,
3,RUS,UST-CILMA,65.43,52.27,0.7,8.8,-0.6,33,10,
3,RUS,UST-ILIMSK,58.20,102.75,1.7,10.6,-1.9,32,27,
3,RUS,UST-ISIM,57.68,71.18,3.5,12.0,-1.6,28,32,
3,RUS,UST-JUDOMA,59.18,135.15,-0.7,14.9,-2.0,24,-21,
3,RUS,UST-KAMCHATSK,56.22,162.47,1.4,7.4,1.2,50,-25,
3,RUS,UST-KULOM,61.68,53.68,3.2,10.8,-1.5,26,22,
3,RUS,UST-KUT,56.87,105.70,1.1,10.2,-1.2,31,23,
3,RUS,UST-MAJA,60.38,134.45,-1.1,14.8,-1.8,26,-14,
3,RUS,UST-NJUKZHA,56.58,121.48,1.5,13.6,-1.0,27,13,
3,RUS,UST-UMALTA,51.63,133.32,2.5,13.3,-1.0,28,13,
3,RUS,UST-USA,65.97,56.92,0.2,8.5,-1.3,33,10,
3,RUS,USUGLI,52.65,115.17,1.9,12.2,-0.9,28,13,
3,RUS,VANZIL-KYNAK,60.35,84.08,1.6,11.2,-1.8,30,16,
3,RUS,VERESCAGINO,58.08,54.68,4.8,11.9,-1.9,24,16,
3,RUS,VERHNEIMBATSK,63.15,87.95,0.6,10.7,-1.3,32,14,
3,RUS,VERHNIJ-UFALEJ,56.08,60.30,4.4,11.5,-1.8,28,22,
3,RUS,VERHNJAJA-GUTARA,54.22,96.97,0.9,10.3,-1.8,28,-1,
3,RUS,VERHOJANSK,67.55,133.38,-5.1,16.6,-4.2,34,-17,
3,RUS,VERHOTUR`E,58.87,60.78,4.0,11.5,-1.7,27,22,
3,RUS,VESELAJA-GORKA,52.28,135.80,3.0,12.9,-1.5,32,45,
3,RUS,VESLJANA,62.98,50.90,2.3,9.8,-2.1,32,24,
3,RUS,VIKULOVO,56.82,70.62,4.6,12.4,-2.0,29,21,
3,RUS,VILJUJSK,63.77,121.62,-1.4,13.8,-2.2,26,-8,
3,RUS,VITIM,59.45,112.58,0.9,12.2,-1.6,28,7,
3,RUS,VLADIVOSTOK,43.12,131.93,7.5,12.7,1.3,35,-42,
3,RUS,VOLCIHA,52.02,80.37,5.2,13.2,-2.2,29,22,
3,RUS,VORKUTA,67.48,64.02,-1.8,9.1,-1.9,38,4,
3,RUS,VOROGOVO,61.03,89.63,1.8,11.0,-1.2,32,20,
3,RUS,ZAMOKTA,52.77,109.97,0.4,9.4,-1.4,31,11,
3,RUS,ZAVITAJA,50.12,129.47,4.2,14.4,-1.4,29,20,
3,RUS,ZDVINSK,54.70,78.67,4.3,12.8,-1.9,30,20,
3,RUS,ZEJA,53.70,127.30,3.1,13.9,-1.2,27,33,
3,RUS,ZHIGALOVO,54.80,105.22,1.9,12.0,-1.5,30,17,
3,RUS,ZHIGANSK,66.77,123.40,-3.9,14.6,-2.6,34,-10,
3,RUS,ZIMA,53.93,102.05,3.0,12.5,-1.7,26,28,
3,RUS,ZMEINOGORSK,51.15,82.20,5.4,12.3,-1.9,30,21,
3,RUS,ZOLOTOJ,47.32,138.98,4.9,10.4,2.4,47,-37,
3,RUS,ZURAVLEVKA,44.75,134.47,5.7,14.3,-1.8,32,35,
3,RUS,ZVERINOGOLOVSKAJA,54.47,64.87,5.4,13.2,-2.2,28,12,
3,RUS,ZYRJANKA,65.73,150.90,-3.8,14.5,-3.1,35,-7,
3,SAU,ABHA,18.23,42.65,21.5,5.5,0.8,16,-12,
3,SAU,AL-AHSA,25.30,49.48,28.5,11.2,1.0,19,18,
3,SAU,AL-BAHA,20.30,41.65,24.5,6.7,0.6,17,-1,
3,SAU,AL-JOUF,29.78,40.10,23.7,11.5,1.8,21,6,
3,SAU,AL-MADINAH,24.55,39.70,29.4,9.3,1.1,22,5,
3,SAU,AL-QAISUMAH,28.32,46.13,26.8,12.0,1.3,19,-3,
3,SAU,AL-TAIF,21.48,40.55,24.8,7.0,0.9,19,9,
3,SAU,AL-WEJH,26.20,36.48,26.6,5.1,1.2,28,23,
3,SAU,ARAR,30.90,41.13,24.1,12.0,1.3,21,-9,
3,SAU,BISHA,19.98,42.63,27.4,7.3,0.9,13,-10,
3,SAU,DHAHRAN,26.27,50.17,28.1,10.0,1.0,21,13,
3,SAU,GASSIM,26.30,43.77,26.3,11.0,1.1,21,10,
3,SAU,GIZAN,16.88,42.58,32.0,4.2,0.7,25,29,
3,SAU,GURIAT,31.40,37.28,21.6,10.2,0.9,22,3,
3,SAU,HAIL,27.43,41.68,24.2,11.2,1.2,23,4,
3,SAU,JEDDAH(KING-ABDUL),21.70,39.18,29.8,5.0,0.5,26,8,
3,SAU,KHAMIS-MUSHAIT,18.30,42.80,22.5,5.3,0.5,16,10,
3,SAU,KING-KHALED-INTL-AP,24.93,46.72,27.1,10.7,1.2,18,4,
3,SAU,MAKKAH,21.43,39.77,32.6,6.2,0.9,22,12,
3,SAU,NAJRAN,17.62,44.42,27.3,7.2,0.7,10,-21,
3,SAU,RAFHA,29.62,43.48,24.9,12.3,1.9,21,1,
3,SAU,RIYADH-OBS(OAP),24.70,46.73,27.9,10.6,1.0,19,2,
3,SAU,SHARORAH,17.47,47.10,29.6,7.7,1.5,12,-2,
3,SAU,TABUK,28.38,36.60,24.0,10.1,1.2,21,-4,
3,SAU,TURAIF,31.68,38.73,20.9,11.0,1.0,24,-3,
3,SAU,WADI-AL-DAWASSER-AP,20.50,45.25,29.5,9.1,1.0,14,4,
3,SAU,YENBO,24.13,38.07,29.0,6.4,1.0,28,17,
3,THA,ARANYAPRATHET,13.70,102.58,29.4,1.8,0.9,-17,-2,
3,THA,BANGKOK,13.73,100.57,29.7,1.5,0.7,-21,8,
3,THA,BHUMIBOL-DAM,17.25,99.02,29.4,2.9,1.8,-20,11,
3,THA,CHAIYAPHUM,15.80,102.03,28.4,2.4,1.4,-22,-1,
3,THA,CHANTHABURI,12.60,102.12,28.6,1.1,0.5,-27,18,
3,THA,CHIANG-MAI,18.78,98.98,27.1,2.9,1.9,-14,8,
3,THA,CHIANG-RAI,19.97,99.88,26.6,3.7,1.8,-6,6,
3,THA,CHON-BURI,13.37,100.98,29.6,1.6,0.7,-22,3,
3,THA,CHUMPHON,10.48,99.18,27.7,1.1,0.7,-39,13,
3,THA,DON-MUANG,13.92,100.60,29.4,1.2,0.7,-27,11,
3,THA,HAT-YAI,6.92,100.43,27.3,0.7,0.5,12,16,
3,THA,HUA-HIN,12.58,99.95,28.8,1.6,0.7,-13,0,
3,THA,KAM-PAENG-PHET,16.48,99.53,30.4,2.1,1.3,-11,9,
3,THA,KANCHANABURI,14.02,99.53,29.5,2.2,1.6,-45,2,
3,THA,KHLONG-YAI,11.77,102.88,28.5,0.0,0.5,9,30,
3,THA,KHON-KAEN,16.43,102.83,28.3,2.5,1.3,-11,9,
3,THA,KO-LANTA,7.53,99.05,29.0,0.8,0.1,-32,46,
3,THA,KO-SAMUI,9.47,100.05,29.1,1.1,0.0,-46,44,
3,THA,KO-SICHANG,13.17,100.80,29.4,1.7,0.7,-1,27,
3,THA,LAMPANG,18.28,99.52,28.6,2.4,2.0,-11,11,
3,THA,LAMPHUN,18.57,99.03,28.4,2.7,1.7,-11,11,
3,THA,LOEI,17.45,101.73,27.2,2.7,1.2,-9,6,
3,THA,LOP-BURI,14.80,100.62,30.0,1.7,1.5,-40,3,
3,THA,MAE-HONG-SON,19.30,97.83,28.4,3.3,2.1,-4,15,
3,THA,MAE-SARIANG,18.17,97.93,28.0,2.6,2.1,-6,14,
3,THA,MAE-SOT,16.67,98.55,27.4,2.2,1.7,-24,8,
3,THA,MUKDAHAN,16.53,104.72,27.9,3.0,1.4,-11,1,
3,THA,NAKHON-PHANOM,17.42,104.78,28.1,3.5,1.8,-3,7,
3,THA,NAKHON-RATCHASIMA,14.97,102.08,28.4,2.5,1.2,-23,-5,
3,THA,NAKHON-SAWAN,15.80,100.17,29.7,2.2,1.2,-26,8,
3,THA,"NAKHON-SI-
THAMMARAT",8.53,99.95,28.4,1.4,0.5,15,6,
3,THA,NAN,18.77,100.77,29.4,3.5,1.8,-11,17,
3,THA,NARATHIWAT,6.42,101.82,28.3,0.9,0.7,-16,28,
3,THA,NONG-KHAI,17.87,102.72,28.5,3.3,1.5,-1,10,
3,THA,PATTANI,6.78,101.15,27.5,0.7,0.1,2,22,
3,THA,PHAYAO,19.13,99.90,28.1,3.8,2.0,-11,9,
3,THA,PHETCHABUN,16.43,101.15,28.7,2.3,0.9,-15,2,
3,THA,PHITSANULOK,16.78,100.27,29.2,2.3,1.5,-13,11,
3,THA,PHRAE,18.17,100.17,28.5,2.7,1.5,-9,10,
3,THA,PHUKET-AP,8.13,98.32,28.8,1.5,0.1,4,13,
3,THA,PHUKET,7.88,98.40,28.9,0.6,0.7,-71,3,
3,THA,PRACHIN-BURI,14.05,101.37,30.0,1.7,0.8,-15,-4,
3,THA,PRACHUAP-KHIRIKHAN,11.82,99.82,28.3,1.6,0.8,-20,17,
3,THA,RANONG,9.98,98.62,28.6,1.2,0.7,-56,20,
3,THA,ROI-ET,16.05,103.68,28.2,2.7,1.2,-10,8,
3,THA,SAKON-NAKHON,17.15,104.13,27.9,3.3,1.5,-2,11,
3,THA,SATTAHIP,12.68,100.98,28.8,1.4,0.5,-16,12,
3,THA,SONGKHLA,7.20,100.62,28.0,0.8,0.4,-13,33,
3,THA,SUPHAN-BURI,14.47,100.13,29.7,1.9,1.2,-25,15,
3,THA,SURAT-THANI,9.12,99.15,27.7,0.8,0.6,0,16,
3,THA,SURIN,14.88,103.50,28.3,2.1,1.3,-24,3,
3,THA,TAK,16.88,99.15,29.8,2.4,1.8,-32,8,
3,THA,THA-TUM,15.32,103.68,29.2,3.0,1.1,-25,3,
3,THA,THONG-PHA-PHUM,14.75,98.63,29.1,2.3,1.3,-38,2,
3,THA,TRANG,7.52,99.62,28.0,0.9,0.5,-58,20,
3,THA,UBON-RATCHATHANI,15.25,104.87,28.2,1.9,1.2,-28,7,
3,THA,UDON-THANI,17.38,102.80,28.2,3.3,1.5,-12,-3,
3,THA,UTTARADIT,17.62,100.10,29.7,2.6,1.9,-20,12,
3,TJK,DUSHANBE,38.55,68.78,18.9,12.9,0.8,18,-16,
3,TKM,ASHGABAT-KESHI,37.92,58.33,19.0,13.8,-0.1,17,10,
3,TKM,BAJRAMALY,37.60,62.18,19.9,14.2,0.4,13,14,
3,TKM,BAKHERDEN,38.43,57.42,19.9,14.8,0.2,17,5,
3,TKM,BYRDALYK,38.47,64.37,19.5,13.5,0.0,12,11,
3,TKM,CARSANGA,37.52,66.02,20.9,13.4,-0.2,16,3,
3,TKM,CHARDZHEV,39.08,63.60,18.2,14.0,0.2,12,2,
3,TKM,DASHKHOVUZ,41.75,59.82,15.8,15.9,-0.1,17,11,
3,TKM,EKEZHE,41.03,57.77,17.0,16.9,0.3,15,6,
3,TKM,ERBENT,39.32,58.60,20.1,15.7,0.6,11,-20,
3,TKM,GAZANDZHYK,39.25,55.52,19.2,14.5,0.0,17,9,
3,TKM,GYSHGY,35.28,62.35,18.5,12.7,-1.0,18,-21,
3,TKM,GYZYLARBAT,38.98,56.28,18.9,14.9,-0.2,17,15,
3,TKM,KERKI,37.83,65.20,20.3,13.1,-0.1,15,7,
3,TKM,SARAGT,36.53,61.22,20.5,13.0,0.0,15,5,
3,TKM,TEDZHEN,37.38,60.52,20.0,13.8,0.1,15,6,
3,TKM,TURKMENBASHI,40.05,53.00,17.4,13.3,0.2,22,2,
3,TKM,UCHADZHY,38.08,62.80,20.3,14.8,0.0,14,0,
3,TWN,CHENG-KUNG,23.10,121.37,24.5,4.7,0.0,32,-14,
3,TWN,CHIANG-KAI-SHEK,25.08,121.22,22.9,6.4,-0.1,31,-7,
3,TWN,CHIAYI,23.50,120.45,23.6,5.9,0.8,28,28,
3,TWN,CHILUNG,25.15,121.80,23.4,6.4,0.0,31,-4,
3,TWN,CHINMEM-SHATOU(AFB),24.43,118.37,21.8,7.5,-0.3,37,-45,
3,TWN,DAWU,22.35,120.90,25.6,4.2,0.5,24,6,
3,TWN,DONGSHA-DAO,20.67,116.72,26.2,4.0,0.5,24,21,
3,TWN,HENGCHUN,22.00,120.75,25.8,3.6,0.6,25,18,
3,TWN,HSINCHU-CITY,24.83,120.93,22.8,6.7,0.0,33,-20,
3,TWN,HUA-LIEN-CITY,23.98,121.60,24.1,5.0,0.5,27,2,
3,TWN,ILAN-CITY,24.75,121.78,23.0,5.8,0.2,26,5,
3,TWN,JOYUTANG,23.88,120.85,21.9,4.5,0.8,21,24,
3,TWN,KAOHSIUNG-INTL-AP,22.58,120.35,25.6,4.3,1.1,23,23,
3,TWN,KAOHSIUNG,22.63,120.28,25.2,4.4,1.2,24,23,
3,TWN,LAN-YU,22.03,121.55,23.3,3.7,0.5,31,16,
3,TWN,MAZU,26.17,119.93,19.5,8.7,-0.3,39,-17,
3,TWN,MOUNT-ALISAN,23.52,120.80,14.0,4.2,0.8,23,16,
3,TWN,MOUNT-MORRISON,23.48,120.95,6.5,5.6,0.4,39,6,
3,TWN,PENGHU-ISLANDS,23.50,119.50,23.6,6.0,0.5,33,13,
3,TWN,PENGJIA-YU,25.63,122.07,22.5,6.4,0.4,32,-12,
3,TWN,SUAO-MET-STATION,24.60,121.85,23.2,6.0,0.1,30,2,
3,TWN,SUNGSHAN-TAIPEI,25.07,121.55,23.5,6.4,0.1,31,-6,
3,TWN,TAIBEI,25.03,121.52,24.0,6.6,0.6,32,27,
3,TWN,TAIDONG,22.75,121.15,25.1,4.6,0.5,27,10,
3,TWN,TAINAN,23.00,120.22,24.9,5.3,0.9,29,26,
3,TWN,TAIZHONG,24.15,120.68,24.5,5.4,1.1,29,24,
3,TWN,WU-CHI-OBSERVATORY,24.25,120.52,23.3,6.3,0.8,30,27,
3,UZB,AK-BAJTAL,43.15,64.33,15.2,17.6,-0.1,18,4,
3,UZB,BUHARA,39.72,64.62,17.5,14.6,0.2,13,1,
3,UZB,BUZAUBAJ,41.75,62.47,17.3,17.4,0.6,14,17,
3,UZB,CHIMBAJ,42.95,59.82,14.7,17.2,-1.1,16,-19,
3,UZB,DARGANATA,40.47,62.28,17.2,14.9,0.6,13,9,
3,UZB,DZIZAK,40.12,67.83,17.8,13.9,0.3,15,1,
3,UZB,FERGANA,40.37,71.75,17.4,14.2,0.6,16,-3,
3,UZB,KARSHI,38.80,65.72,19.0,14.1,-0.4,14,12,
3,UZB,KUNGRAD,43.08,58.93,14.5,16.5,-0.1,14,19,
3,UZB,NAMANGAN,40.98,71.58,17.4,14.0,0.6,15,-14,
3,UZB,NUKUS,42.45,59.62,15.1,16.9,0.2,16,11,
3,UZB,NURATA,40.55,65.68,17.4,13.7,-0.3,14,0,
3,UZB,PSKEM,41.90,70.37,12.9,14.6,1.0,18,25,
3,UZB,SAMARKAND,39.57,66.95,16.6,12.8,0.0,15,14,
3,UZB,SYR-DARJA,40.82,68.68,17.1,14.6,0.7,12,21,
3,UZB,TAMDY,41.73,64.62,17.1,16.0,0.6,13,23,
3,UZB,TASHKENT,41.27,69.27,17.4,13.6,-0.1,15,4,
3,UZB,TERMEZ,37.23,67.27,20.0,13.5,0.5,14,-6,
3,UZB,URGENCH,41.57,60.57,15.9,15.7,0.6,13,16,
3,VNM,BACH-LONG-VI,20.13,107.72,24.5,5.3,0.0,30,-6,
3,VNM,CA-MAU,9.18,105.15,27.8,0.8,0.8,-13,15,
3,VNM,CAO-BANG,22.67,106.25,22.9,5.8,1.2,19,20,
3,VNM,CON-SON,8.68,106.60,28.3,1.3,0.7,-11,19,
3,VNM,DA-NANG,16.07,108.35,26.6,3.8,0.5,16,25,
3,VNM,DONG-HOI,17.48,106.60,25.7,5.1,0.6,18,22,
3,VNM,HA-NOI,21.03,105.80,24.8,6.2,1.0,27,29,
3,VNM,HUE,16.43,107.58,26.0,4.6,0.7,12,23,
3,VNM,LANG-SON,21.83,106.77,22.4,6.3,1.2,22,21,
3,VNM,LAO-CAI,22.50,103.97,25.3,5.8,1.3,19,15,
3,VNM,NAM-DINH,20.43,106.15,24.4,6.0,1.0,25,19,
3,VNM,NHA-TRANG,12.22,109.22,27.7,2.8,0.2,13,6,
3,VNM,PHAN-THIET,10.93,108.10,28.1,1.3,0.5,-8,6,
3,VNM,PHU-LIEN,20.80,106.63,24.5,5.7,0.8,26,28,
3,VNM,PHU-QUOC,10.22,103.97,28.3,0.9,0.7,-25,14,
3,VNM,QUY-NHON,13.77,109.22,28.2,3.5,0.5,11,4,
3,VNM,TAN-SON-HOA,10.82,106.67,28.5,1.2,0.6,-36,14,
3,VNM,THANH-HOA,19.75,105.78,25.2,5.6,0.5,22,16,
3,VNM,TRUONG-SA,8.65,111.92,28.1,1.1,0.2,14,16,
3,VNM,VINH,18.67,105.68,25.1,5.8,0.6,21,20,
4,ARM,YEREVAN-YEREVAN-ARA,40.13,44.47,14.2,14.4,1.2,26,14,
4,AUT,AIGEN-IM-ENNSTAL,47.53,14.13,9.0,10.3,0.4,22,-14,
4,AUT,BREGENZ,47.50,9.75,11.3,9.1,-0.5,18,41,
4,AUT,EISENSTADT,47.85,16.53,11.5,9.9,-0.1,20,16,
4,AUT,FEUERKOGEL,47.82,13.72,5.5,7.4,-1.5,31,20,
4,AUT,GRAZ-THALERHOF-FLUG,47.00,15.43,11.1,11.5,0.7,19,8,
4,AUT,INNSBRUCK-FLUGHAFEN,47.27,11.35,10.5,9.9,0.4,17,11,
4,AUT,KLAGENFURT-FLUGHAFE,46.65,14.33,10.3,11.5,0.5,20,11,
4,AUT,KUFSTEIN,47.58,12.17,9.7,9.8,0.0,18,13,
4,AUT,LIENZ,46.83,12.82,9.0,11.2,0.3,22,8,
4,AUT,LINZ-HOERSCHING-FLU,48.23,14.18,10.7,10.0,0.1,20,9,
4,AUT,MARIAZELL,47.77,15.32,8.6,10.1,-0.1,23,5,
4,AUT,PATSCHERKOFEL,47.22,11.47,1.3,5.6,-0.2,49,2,
4,AUT,PREITENEGG,46.93,14.92,7.9,9.7,-0.3,25,8,
4,AUT,SALZBURG-FLUGHAFEN,47.80,13.00,10.9,9.4,0.1,19,11,
4,AUT,SONNBLICK,47.05,12.95,-3.2,6.2,-0.9,49,-38,
4,AUT,ST-POELTEN,48.18,15.62,10.7,10.2,-0.1,20,11,
4,AUT,TULLN,48.32,16.12,11.4,9.7,-0.4,18,17,
4,AUT,VILLACHERALPE,46.60,13.67,2.0,5.9,-1.5,46,45,
4,AUT,WIEN-HOHE-WARTE,48.25,16.37,12.1,9.7,-0.9,20,43,
4,AUT,WIEN-SCHWECHAT-FLUG,48.12,16.57,11.8,9.9,-0.1,21,8,
4,AUT,ZELTWEG,47.20,14.75,9.1,10.7,0.4,21,6,
4,AZE,LANKARAN,38.73,48.83,17.2,11.8,0.2,24,-3,
4,AZE,ZAKATALA,41.67,46.65,14.9,11.0,0.8,22,-32,
4,BEL,ANTWERPEN-DEURNE,51.20,4.47,11.9,6.9,-0.6,20,28,
4,BEL,BEAUVECHAIN,50.75,4.77,11.4,7.2,-0.2,22,8,
4,BEL,BIERSET,50.65,5.45,11.3,7.2,0.1,20,6,
4,BEL,BRASSCHAAT,51.33,4.50,11.4,7.4,-0.7,19,44,
4,BEL,BRUXELLES-NATIONAL,50.90,4.53,11.6,6.9,-0.3,21,9,
4,BEL,CHARLEROI-GOSSELIES,50.47,4.45,11.3,7.3,-0.7,20,46,
4,BEL,CHIEVRES,50.57,3.83,11.3,7.1,0.5,23,-30,
4,BEL,ELSENBORN,50.47,6.18,8.4,7.7,-0.6,22,26,
4,BEL,FLORENNES,50.23,4.65,10.6,6.9,-0.2,23,13,
4,BEL,GENK,50.93,5.50,12.2,7.5,-0.1,22,10,
4,BEL,GENT-INDUSTRIE-ZONE,51.18,3.82,12.5,6.8,-0.3,22,11,
4,BEL,GOETSENHOVEN,50.78,4.95,11.5,7.5,-0.2,26,5,
4,BEL,KLEINE-BROGEL,51.17,5.47,11.3,7.2,-0.7,17,42,
4,BEL,KOKSIJDE,51.08,2.65,11.3,6.0,0.6,29,-27,
4,BEL,OOSTENDE(AP),51.20,2.87,11.4,6.2,0.0,28,9,
4,BEL,SCHAFFEN,51.00,5.07,11.5,7.8,0.6,23,0,
4,BEL,SEMMERZAKE,50.93,3.67,11.7,7.3,0.0,25,7,
4,BEL,SPA-LA-SAUVENIERE,50.48,5.92,9.7,7.6,-0.8,23,-3,
4,BEL,ST-HUBERT,50.03,5.40,9.3,7.7,-0.2,23,6,
4,BEL,ST-TRUIDEN(BAFB),50.80,5.20,11.4,7.5,-0.2,25,4,
4,BEL,UCCLE,50.80,4.35,11.5,7.3,-0.8,22,53,
4,BGR,BOTEV-VRAH(TOP-SOM),42.67,24.83,1.4,5.9,1.0,49,-30,
4,BGR,BURGAS,42.48,27.48,13.7,10.1,-0.5,26,45,
4,BGR,KURDJALI,41.65,25.37,14.2,10.6,1.0,23,-28,
4,BGR,LOM,43.82,23.25,14.1,12.0,-0.1,19,12,
4,BGR,MUSSALA(TOP-SOMMET),42.18,23.58,-0.5,4.9,-0.8,41,7,
4,BGR,PLEVEN,43.42,24.60,13.5,11.7,0.8,21,-14,
4,BGR,PLOVDIV,42.13,24.75,14.4,11.2,0.7,22,-24,
4,BGR,ROUSSE,43.85,25.95,13.9,11.9,0.5,21,-10,
4,BGR,SANDANSKI,41.52,23.27,16.1,11.3,0.9,22,-17,
4,BGR,SLIVEN,42.67,26.32,14.2,10.7,0.6,24,-22,
4,BGR,SOFIA(OBSERV),42.65,23.38,12.3,11.2,0.5,22,7,
4,BGR,VARNA,43.20,27.92,13.2,10.4,-0.1,26,8,
4,BIH,BANJA-LUKA,44.78,17.22,12.9,10.0,0.1,19,8,
4,BIH,MOSTAR,43.33,17.78,15.8,10.3,0.7,24,-14,
4,BIH,SARAJEVO-BUTMIR,43.82,18.33,11.8,10.1,0.6,20,-7,
4,BLR,BARANOVICHI,53.12,26.00,8.1,10.7,-0.9,25,-2,
4,BLR,BOBRUISK,53.22,29.18,7.8,11.3,-1.4,24,-10,
4,BLR,BREST,52.12,23.68,9.2,11.0,-1.1,22,-26,
4,BLR,GOMEL,52.40,30.95,8.4,11.8,-1.3,23,-4,
4,BLR,GRODNO,53.60,24.05,8.1,10.7,-1.4,25,1,
4,BLR,KOSTUCKOVICHI,53.35,32.07,7.3,11.4,-1.2,26,7,
4,BLR,LEPEL,54.88,28.70,7.6,11.1,-1.4,23,0,
4,BLR,LIDA,53.85,25.32,7.8,10.8,-1.1,25,-1,
4,BLR,LYNTUPY,55.05,26.32,6.9,10.2,-1.3,27,13,
4,BLR,MINSK,53.93,27.63,7.4,11.1,-1.2,26,9,
4,BLR,MOGILEV,53.95,30.07,7.1,11.2,-1.6,25,10,
4,BLR,MOZYR,51.95,29.17,8.0,11.7,-0.8,24,6,
4,BLR,ORSHA,54.50,30.42,7.0,10.9,-1.6,23,8,
4,BLR,PINSK,52.12,26.12,9.1,11.1,-0.8,19,-21,
4,BLR,SLUTSK,53.03,27.55,8.2,11.4,-1.0,23,-2,
4,BLR,VERHNEDVINSK,55.82,27.95,7.3,11.0,-1.4,25,2,
4,BLR,VITEBSK,55.17,30.22,7.6,11.1,-1.7,23,1,
4,BLR,ZHITCKOVICHI,52.22,27.87,8.8,11.2,-1.1,23,-16,
4,CHE,AIGLE,46.33,6.92,11.4,9.0,0.0,19,11,
4,CHE,ALTDORF,46.87,8.63,11.5,8.6,0.0,19,16,
4,CHE,CHUR-EMS,46.87,9.53,10.7,9.7,1.0,19,17,
4,CHE,FAHY,47.43,6.95,10.4,8.3,-0.1,22,10,
4,CHE,GENEVE-COINTRIN,46.25,6.13,11.7,9.1,0.3,21,5,
4,CHE,GUETSCH,46.65,8.62,1.5,5.2,-1.3,50,47,
4,CHE,JUNGFRAUJOCH,46.55,7.98,-4.7,6.6,-0.1,36,8,
4,CHE,LOCARNO-MAGADINO,46.17,8.88,13.5,10.0,0.5,15,-16,
4,CHE,LOCARNO-MONTI,46.17,8.78,14.0,9.4,0.2,19,5,
4,CHE,PAYERNE,46.82,6.95,11.3,8.7,-1.0,20,45,
4,CHE,PIOTTA,46.52,8.68,8.9,9.7,0.1,25,7,
4,CHE,ROBBIA,46.35,10.07,8.7,9.5,0.3,23,-12,
4,CHE,SAENTIS,47.25,9.35,1.1,4.1,0.9,50,-38,
4,CHE,SAN-BERNARDINO,46.47,9.18,5.3,8.3,-1.5,33,22,
4,CHE,SION,46.22,7.33,11.8,10.0,0.6,16,-16,
4,CHE,ST-GALLEN,47.43,9.40,9.8,8.5,0.1,23,11,
4,CHE,WYNAU,47.25,7.78,10.6,8.9,0.0,19,16,
4,CHE,ZUERICH-METEOSCHWEI,47.38,8.57,10.8,9.3,-1.0,19,52,
4,CHE,ZURICH-KLOTEN,47.48,8.53,10.9,9.2,-0.3,17,10,
4,CPV,SAL,16.73,-22.95,25.0,2.9,1.2,55,1,
4,CYP,AKROTIRI,34.58,32.98,21.7,8.0,0.4,30,-4,
4,CYP,LARNACA-AP,34.88,33.63,21.6,8.6,0.6,30,-4,
4,CYP,PAPHOS-AP,34.72,32.48,21.3,7.8,0.1,32,0,
4,CZE,BRNO-TURANY,49.15,16.70,10.4,9.8,0.2,19,12,
4,CZE,CERVENA,49.77,17.55,7.6,10.3,-0.9,23,6,
4,CZE,CESKE-BUDEJOVICE,48.95,14.43,9.9,9.2,0.0,19,11,
4,CZE,CHEB,50.08,12.40,8.9,9.3,-0.6,21,12,
4,CZE,CHURANOV,49.07,13.62,6.4,8.2,-1.0,23,16,
4,CZE,DOKSANY,50.47,14.17,10.9,9.7,0.0,18,13,
4,CZE,DUKOVANY,49.10,16.13,10.2,9.4,-0.6,19,43,
4,CZE,HOLESOV,49.32,17.57,10.8,9.8,-0.5,22,14,
4,CZE,KARLOVY-VARY,50.20,12.92,8.5,9.1,-0.7,17,22,
4,CZE,KOCELOVICE,49.47,13.83,9.3,9.4,-0.6,18,31,
4,CZE,KOSTELNI-MYSLOVA,49.18,15.47,8.8,9.6,-0.4,22,9,
4,CZE,KRESIN-KRAMOLIN,49.58,15.08,9.4,9.2,-0.7,21,39,
4,CZE,KUCHAROVICE,48.88,16.08,10.5,9.6,0.0,19,7,
4,CZE,LIBEREC,50.77,15.02,9.3,9.0,-0.1,20,10,
4,CZE,LUKA,49.65,16.95,9.0,10.2,0.2,22,9,
4,CZE,LYSA-HORA,49.55,18.45,5.1,7.9,-1.6,30,14,
4,CZE,MILESOVKA,50.55,13.93,7.7,8.6,-0.5,21,28,
4,CZE,OSTRAVA-MOSNOV,49.68,18.12,10.4,8.8,-0.1,22,5,
4,CZE,PEC-POD-SNEZKOU,50.67,15.75,6.5,9.3,-1.3,25,9,
4,CZE,PLZEN-LINE,49.17,13.27,9.9,8.9,-0.6,21,-2,
4,CZE,PRADED-MOUNTAIN,50.07,17.23,2.7,6.7,-1.5,40,33,
4,CZE,PRAHA-LIBUS,50.02,14.45,10.5,9.6,-0.2,19,15,
4,CZE,PRAHA-RUZYNE,50.10,14.25,10.0,9.1,-0.6,20,30,
4,CZE,PRIBYSLAV,49.58,15.77,8.9,9.3,0.1,23,10,
4,CZE,PRIMDA,49.67,12.67,8.1,9.2,-0.1,19,15,
4,CZE,SVRATOUCH,49.73,16.03,7.7,10.0,-0.7,24,-1,
4,CZE,TEMELIN,49.20,14.33,9.8,9.8,-0.8,19,23,
4,CZE,TUSIMICE,50.38,13.33,10.4,9.6,-0.6,19,27,
4,CZE,USTI-NAD-LABEM,50.68,14.03,10.0,9.7,-0.5,18,36,
4,CZE,USTI-NAD-ORLICI,49.98,16.43,9.0,9.7,-0.1,23,9,
4,DEU,ALTENSTADT,47.83,10.87,9.9,9.2,-0.5,21,28,
4,DEU,ANGERMUENDE,53.02,14.00,9.9,8.7,-0.6,22,28,
4,DEU,ARKONA(CAPE),54.68,13.43,9.5,7.4,-0.7,30,19,
4,DEU,ARTERN,51.38,11.30,10.1,8.9,-0.2,24,6,
4,DEU,BERGEN,52.82,9.93,10.4,8.2,-1.0,22,36,
4,DEU,BERLIN-SCHONEFELD,52.38,13.52,9.9,9.2,-0.2,22,8,
4,DEU,BOIZENBURG(AUT),53.38,10.72,9.7,8.7,-0.2,24,7,
4,DEU,BOLTENHAGEN,54.00,11.20,9.8,7.7,-0.6,28,38,
4,DEU,BREMEN,53.05,8.80,10.2,7.3,-0.1,22,8,
4,DEU,BROCKEN(PEAK),51.80,10.62,4.3,6.6,-1.1,33,27,
4,DEU,BRUGGEN(RAF),51.20,6.13,11.4,6.8,-0.6,22,33,
4,DEU,BUECHEL,50.17,7.07,9.4,8.0,-1.0,21,35,
4,DEU,BUECKEBURG,52.28,9.08,11.6,8.2,-0.2,21,10,
4,DEU,CELLE,52.60,10.02,11.1,8.2,-1.0,20,40,
4,DEU,COTTBUS,51.78,14.33,12.1,9.6,-1.0,23,14,
4,DEU,DIEPHOLZ,52.58,8.35,10.9,7.9,-0.7,22,43,
4,DEU,DOBERLUG-KIRCHHAIN,51.65,13.58,10.5,8.7,-0.3,24,6,
4,DEU,DRESDEN-KLOTZSCHE,51.13,13.77,10.0,9.4,-0.4,22,33,
4,DEU,ERFURT-BINDERSLEBN,50.98,10.97,9.4,8.9,0.0,24,10,
4,DEU,FASSBERG,52.92,10.18,10.4,8.3,-0.5,21,28,
4,DEU,FICHTELBERG-MTN,50.43,12.95,4.2,7.2,-1.3,34,30,
4,DEU,FRANKFURT-MAIN-AP,50.05,8.60,11.3,8.4,-0.1,18,17,
4,DEU,GARDELEGEN(AUT),52.52,11.40,10.1,8.1,-0.6,22,8,
4,DEU,GERA-LEUMNITZ,50.88,12.13,9.5,8.4,0.3,24,8,
4,DEU,GLUECKSBURG-MEIERWI,54.83,9.50,10.1,7.3,-0.6,28,38,
4,DEU,GOERLITZ,51.17,14.95,9.6,8.7,-0.5,23,43,
4,DEU,GREIFSWALD,54.10,13.40,9.7,8.0,-0.6,25,19,
4,DEU,GUETERSLOH,51.93,8.32,11.1,7.7,-0.6,17,34,
4,DEU,HOHN,54.32,9.53,10.3,7.8,-0.2,25,9,
4,DEU,HOLZDORF,51.77,13.17,10.6,9.0,-0.7,21,27,
4,DEU,HOPSTEN,52.33,7.53,11.1,7.6,0.0,19,14,
4,DEU,IDAR-OBERSTEIN,49.70,7.33,10.0,8.7,-0.1,19,13,
4,DEU,INGOLSTADT,48.72,11.53,10.8,10.3,0.0,18,14,
4,DEU,ITZEHOE,53.98,9.57,10.3,7.8,-0.5,26,18,
4,DEU,JEVER,53.53,7.90,10.7,7.3,-0.9,26,37,
4,DEU,KALKAR,51.73,6.27,11.7,7.8,-0.1,19,8,
4,DEU,KARL-MARX-STADT,50.82,12.90,10.0,8.7,-0.4,26,9,
4,DEU,KOLN-BONN(CIV-MIL),50.87,7.17,11.0,7.6,-0.5,19,33,
4,DEU,KUEMMERSBRUCK,49.43,11.90,10.0,9.5,0.0,18,13,
4,DEU,LAAGE,53.92,12.28,10.4,8.2,-0.6,22,49,
4,DEU,LAARBRUCH(RAF),51.60,6.15,10.9,7.6,-0.7,26,18,
4,DEU,LAHR,48.37,7.83,11.9,9.0,-0.1,15,13,
4,DEU,LANDSBERG,48.07,10.90,10.0,8.8,-0.1,21,11,
4,DEU,LAUPHEIM,48.22,9.92,10.2,8.8,0.0,19,14,
4,DEU,LECHFELD,48.18,10.85,10.1,8.9,-0.3,21,15,
4,DEU,LEINEFELDE(AUT),51.38,10.32,8.9,8.5,0.1,26,8,
4,DEU,LEIPZIG-SCHKEUDITZ,51.42,12.23,9.9,9.4,-0.1,24,10,
4,DEU,LINDENBERG,52.22,14.12,10.1,9.2,-0.5,21,6,
4,DEU,LUEDENSCHEID,51.25,7.65,9.7,7.9,0.0,20,11,
4,DEU,MAGDEBURG,52.12,11.58,10.2,8.4,-0.6,23,-4,
4,DEU,MARNITZ(AUT),53.32,11.93,9.5,8.7,-0.2,26,8,
4,DEU,MEININGEN,50.55,10.37,8.4,9.3,0.1,27,12,
4,DEU,MENDIG,50.37,7.32,11.0,8.8,-1.0,17,43,
4,DEU,MEPPEN,52.73,7.33,12.0,7.7,-0.4,20,21,
4,DEU,MESSSTETTEN,48.18,9.00,8.2,8.5,-0.8,21,16,
4,DEU,MUNICH-RIEM,48.13,11.70,10.1,8.9,0.0,18,10,
4,DEU,NEUBRANDENBURG,53.60,13.32,9.3,8.5,-0.1,24,11,
4,DEU,NEUBURG-DONAU,48.72,11.22,10.3,9.7,-0.2,18,13,
4,DEU,NEURUPPIN,52.90,12.82,9.9,8.8,-0.3,25,11,
4,DEU,NIEDERSTETTEN,49.38,9.97,10.2,8.6,-0.1,21,12,
4,DEU,NOERVENICH,50.83,6.67,11.9,8.3,-0.2,18,16,
4,DEU,NORDHOLZ,53.77,8.67,10.6,7.4,-1.0,27,43,
4,DEU,NUERBURG-BARWEILER,50.37,6.87,9.6,8.1,0.5,21,-19,
4,DEU,OLDENBURG,53.18,8.17,10.8,7.7,0.1,23,9,
4,DEU,OSCHATZ,51.30,13.10,10.9,8.5,0.0,20,9,
4,DEU,PLAUEN(AUT),50.50,12.15,9.2,9.1,0.1,26,6,
4,DEU,POTSDAM,52.38,13.07,10.2,9.2,-0.2,24,7,
4,DEU,RHEINE-BENTLAGE,52.30,7.38,11.0,7.6,-0.5,20,46,
4,DEU,ROTH,49.22,11.10,10.3,8.9,-0.2,19,10,
4,DEU,SCHLESWIG-JAGEL,54.47,9.52,10.2,7.8,-0.2,25,9,
4,DEU,SCHMUECKE(RIDGE),50.65,10.77,6.0,8.4,-0.6,33,15,
4,DEU,SCHWERIN,53.63,11.42,9.9,8.5,0.3,20,10,
4,DEU,SEEHAUSEN-ALTMARK,52.90,11.73,9.7,8.9,-0.5,25,9,
4,DEU,SONNEBERG-NEUFANG,50.38,11.18,7.5,9.4,-0.7,25,20,
4,DEU,STRAUBING,48.83,12.57,9.7,9.8,-0.1,18,12,
4,DEU,TETEROW,53.77,12.62,9.3,8.4,-0.2,23,7,
4,DEU,TROLLENHAGEN,53.60,13.32,10.3,8.9,0.1,22,4,
4,DEU,UECKERMUENDE(AUT),53.75,14.07,10.4,8.1,-0.2,24,9,
4,DEU,WARNEMUENDE,54.18,12.08,9.8,7.7,-0.6,28,22,
4,DEU,WERNIGERODE(AUT),51.85,10.77,10.2,8.4,-0.7,28,37,
4,DEU,WIESENBURG,52.12,12.47,9.9,8.6,-0.6,18,10,
4,DEU,WITTENBERG,51.88,12.65,10.2,9.2,-0.6,20,7,
4,DEU,WITTMUNDHAVEN,53.55,7.67,10.9,7.2,0.1,25,-6,
4,DEU,WUNSTORF,52.47,9.43,11.4,7.9,-0.6,23,33,
4,DEU,ZINNWALD-GEORGENFE,50.73,13.75,6.2,8.1,-1.0,30,10,
4,DNK,AALBORG,57.10,9.85,9.4,7.5,-0.7,28,21,
4,DNK,BILLUND,55.73,9.17,9.3,7.5,-0.6,26,13,
4,DNK,CHRISTIANSO(LGT-H),55.32,15.18,9.5,7.8,-1.0,39,30,
4,DNK,ESBJERG,55.53,8.57,10.1,7.0,-0.3,27,19,
4,DNK,FORNAES(CAPE),56.45,10.97,9.5,7.4,-0.5,34,22,
4,DNK,HAMMER-ODDE,55.30,14.78,9.7,7.8,-1.0,34,30,
4,DNK,HOLBAEK,55.73,11.60,9.9,8.2,-0.6,28,44,
4,DNK,HVIDE-SANDE,56.00,8.13,10.8,7.6,-0.8,34,42,
4,DNK,KARUP,56.30,9.12,9.5,7.6,-0.7,26,17,
4,DNK,KEGNAES,54.85,9.98,10.2,7.5,-0.4,31,26,
4,DNK,KOEBENHAVN-KASTRUP,55.62,12.65,9.9,7.7,-0.5,28,6,
4,DNK,ODENSE-BELDRINGE,55.48,10.33,10.0,7.6,-0.8,25,24,
4,DNK,ROENNE,55.07,14.75,10.3,7.8,-1.0,31,29,
4,DNK,ROSKILDE-TUNE,55.58,12.13,9.4,7.9,-0.7,28,25,
4,DNK,SKAGEN,57.73,10.63,9.8,7.0,-1.3,33,32,
4,DNK,SKRYDSTRUP,55.23,9.27,9.4,7.3,-0.7,28,12,
4,DNK,THYBOROEN,56.70,8.22,10.5,6.7,-0.8,38,30,
4,DNK,TIRSTRUP,56.32,10.63,9.2,8.0,-0.3,27,3,
4,DNK,VAERLOESE,55.77,12.33,9.4,7.9,-1.1,23,40,
4,ESP,ALBACETE-LOS-LLANOS,38.95,-1.85,16.6,10.8,0.0,22,11,
4,ESP,ALICANTE-EL-ALTET,38.28,-0.55,20.3,8.0,0.8,28,-34,
4,ESP,ALMERIA-AP,36.85,-2.38,20.7,7.6,1.0,28,-32,
4,ESP,ASTURIAS-AVILES,43.55,-6.03,14.6,4.7,0.5,35,-32,
4,ESP,BADAJOZ-TALAVERA-LA,38.88,-6.83,19.0,9.8,1.4,19,-30,
4,ESP,BARCELONA-AP,41.28,2.07,18.0,8.3,1.3,26,-31,
4,ESP,BILBAO-SONDICA,43.30,-2.90,15.5,6.2,1.1,28,-15,
4,ESP,CACERES,39.47,-6.33,18.5,9.6,1.5,21,-43,
4,ESP,CIUDAD-REAL,38.98,-3.92,17.9,11.5,-1.9,20,47,
4,ESP,CORDOBA-AP,37.85,-4.85,20.2,10.3,1.5,23,-35,
4,ESP,GERONA-COSTA-BRAVA,41.90,2.77,15.7,8.2,1.1,28,-34,
4,ESP,GRANADA-AP,37.18,-3.78,18.2,10.3,-0.1,21,10,
4,ESP,IBIZA-ES-CODOLA,38.88,1.38,20.0,8.1,0.8,30,-31,
4,ESP,JEREZ-DE-LA-FRONTER,36.75,-6.07,19.9,8.1,1.1,26,-38,
4,ESP,LA-CORUNA,43.37,-8.42,16.2,5.3,0.7,27,-32,
4,ESP,LEON-VIRGEN-DEL-CAM,42.58,-5.65,13.0,9.8,-0.1,20,9,
4,ESP,LOGRONO-AGONCILLO,42.45,-2.33,14.9,8.2,1.0,26,-34,
4,ESP,MADRID-BARAJAS-RS,40.45,-3.55,16.9,10.6,-1.5,22,48,
4,ESP,MADRID-GETAFE,40.30,-3.72,16.9,10.2,-1.4,21,49,
4,ESP,MALAGA-AP,36.67,-4.48,20.2,7.5,-1.0,26,53,
4,ESP,MENORCA-MAHON,39.87,4.23,18.8,7.7,0.1,31,-12,
4,ESP,MORON-DE-LA-FRONTER,37.15,-5.62,20.7,9.1,1.0,22,-30,
4,ESP,MURCIA-ALCANTARILLA,37.95,-1.23,19.9,9.2,0.1,19,9,
4,ESP,MURCIA-SAN-JAVIER,37.78,-0.80,20.1,8.0,1.0,27,-33,
4,ESP,MURCIA,38.00,-1.17,20.9,9.0,0.9,24,-32,
4,ESP,NAVACERRADA,40.78,-4.02,9.1,9.2,-2.1,28,30,
4,ESP,OVIEDO,43.35,-5.87,14.7,6.5,0.6,27,-28,
4,ESP,PALMA-DE-MALLORCA-S,39.55,2.73,18.8,8.9,-0.7,28,47,
4,ESP,PAMPLONA-NOAIN,42.77,-1.63,13.6,7.9,1.4,26,-33,
4,ESP,REUS-AP,41.15,1.17,17.8,8.9,0.1,26,1,
4,ESP,ROTA-NAS,36.65,-6.35,19.7,7.3,0.0,22,15,
4,ESP,SALAMANCA-MATACAN,40.95,-5.50,14.7,9.8,-0.1,22,3,
4,ESP,SAN-SEBASTIAN-FUENT,43.35,-1.80,15.4,6.5,1.1,31,-16,
4,ESP,SAN-SEBASTIAN-IGUEL,43.30,-2.03,14.2,5.4,0.5,34,-13,
4,ESP,SANTANDER-PARAYAS,43.43,-3.82,14.6,5.1,0.1,31,4,
4,ESP,SANTANDER,43.48,-3.80,15.6,4.5,-0.8,33,30,
4,ESP,SANTIAGO-LABACOLLA,42.90,-8.43,14.6,6.8,-0.9,25,48,
4,ESP,SEVILLA-SAN-PABLO,37.42,-5.90,20.9,9.2,0.9,21,-35,
4,ESP,SORIA,41.77,-2.47,11.3,8.4,-1.5,27,50,
4,ESP,TORTOSA,40.82,0.50,18.9,8.7,0.1,23,7,
4,ESP,VALENCIA-AP,39.50,-0.47,19.8,8.6,-1.0,24,53,
4,ESP,VALLADOLID-VILLANUB,41.72,-4.85,13.5,9.8,1.2,21,-33,
4,ESP,VALLADOLID,41.65,-4.77,15.0,10.1,-1.5,21,49,
4,ESP,VIGO-PEINADOR,42.23,-8.63,15.5,6.2,0.0,22,6,
4,ESP,VITORIA,42.88,-2.72,12.6,7.0,0.7,27,-37,
4,ESP,ZARAGOZA-AP,41.67,-1.00,16.9,10.2,0.1,20,7,
4,EST,PJARNU,58.37,24.50,7.6,10.5,-0.9,26,10,
4,EST,RISTNA,58.92,22.07,7.6,9.3,-0.9,33,8,
4,EST,TALLINN,59.47,24.82,6.8,10.0,-1.2,29,11,
4,EST,TARTU,58.30,26.73,7.0,10.5,-1.5,26,8,
4,EST,VALKE-MAARJA,59.13,26.23,6.2,10.1,-1.8,29,15,
4,FIN,AHTARI,62.53,24.02,4.7,9.9,-2.3,31,21,
4,FIN,BAGASKAR,59.93,24.02,6.4,9.8,-1.9,38,19,
4,FIN,HALLI,61.85,24.80,5.3,10.0,-2.4,34,16,
4,FIN,HELSINKI-VANTAA,60.32,24.97,6.8,10.1,-1.5,30,12,
4,FIN,ILOMANTSI,62.68,30.95,4.0,10.0,-2.2,32,23,
4,FIN,ISOSAARI,60.10,25.07,6.8,10.1,-1.6,37,16,
4,FIN,IVALO,68.62,27.42,1.6,8.5,-1.4,33,22,
4,FIN,JOENSUU,62.67,29.63,4.7,10.1,-2.6,34,22,
4,FIN,JOKIOINEN,60.82,23.50,5.6,9.8,-2.1,31,21,
4,FIN,JYVASKYLA,62.40,25.68,4.9,9.7,-2.5,32,18,
4,FIN,KAJAANI,64.28,27.68,3.9,9.5,-1.8,33,23,
4,FIN,KAUHAVA,63.10,23.03,5.3,9.7,-2.3,31,15,
4,FIN,KEMI,65.78,24.58,3.6,9.4,-2.1,37,24,
4,FIN,KEVO,69.75,27.03,0.7,7.7,-1.3,36,24,
4,FIN,KUOPIO,63.02,27.80,5.4,10.4,-2.8,30,16,
4,FIN,KUUSAMO,65.97,29.18,1.9,8.5,-1.8,34,29,
4,FIN,LAHTI,60.97,25.63,5.9,10.0,-2.5,29,16,
4,FIN,LAPPEENRANTA,61.05,28.20,5.8,10.1,-2.5,28,14,
4,FIN,MARIEHAMN-ALAND-ISL,60.12,19.90,7.2,8.9,-1.4,30,4,
4,FIN,MIKKELI,61.73,27.30,5.7,10.5,-2.5,30,14,
4,FIN,MUONIO,67.97,23.68,1.1,8.1,-1.5,35,21,
4,FIN,NIINISALO,61.85,22.47,5.3,10.1,-2.1,33,15,
4,FIN,NIVALA,63.92,24.97,4.3,9.9,-2.1,32,15,
4,FIN,OULU,64.93,25.37,4.4,9.8,-2.5,33,24,
4,FIN,PELLO,66.80,24.00,2.4,9.2,-2.1,31,25,
4,FIN,PORI,61.47,21.80,6.2,9.9,-2.3,29,17,
4,FIN,PUDASJARVI,65.37,27.02,3.3,9.7,-1.9,34,30,
4,FIN,RANKKI,60.37,26.97,6.3,10.3,-1.9,40,22,
4,FIN,ROVANIEMI,66.57,25.83,2.9,9.1,-1.8,34,32,
4,FIN,RUSSARO,59.77,22.95,7.3,9.3,-1.1,34,20,
4,FIN,SALLA,66.82,28.67,1.2,8.0,-1.1,32,30,
4,FIN,SODANKYLA,67.37,26.65,1.5,8.9,-1.3,33,23,
4,FIN,SUOMUSSALMI,64.90,29.02,2.5,9.1,-1.8,33,31,
4,FIN,TAMPERE-PIRKKALA,61.42,23.58,5.5,9.9,-2.2,33,18,
4,FIN,TURKU,60.52,22.27,6.5,10.2,-2.0,32,17,
4,FIN,UTO,59.78,21.38,8.0,8.3,-1.6,40,16,
4,FIN,UTTI,60.90,26.93,5.7,10.3,-2.4,31,16,
4,FIN,VAASA-AP,63.05,21.77,5.7,9.8,-2.1,34,14,
4,FIN,VALASSAARET,63.43,21.07,4.9,9.0,-2.3,42,27,
4,FIN,VIITASAARI,63.08,25.87,5.5,10.1,-2.6,32,18,
4,FRA,ABBEVILLE,50.13,1.83,11.3,6.5,-0.3,28,19,
4,FRA,AGEN,44.18,0.60,14.6,7.6,-0.8,23,40,
4,FRA,AJACCIO,41.92,8.80,17.5,8.1,0.1,28,3,
4,FRA,ALENCON,48.43,0.10,11.8,6.9,-0.7,25,43,
4,FRA,BALE-MULHOUSE,47.60,7.52,11.6,8.9,0.0,21,12,
4,FRA,BASTIA,42.55,9.48,18.1,8.6,-0.8,26,39,
4,FRA,BEAUVAIS,49.47,2.12,11.7,7.1,-0.1,24,10,
4,FRA,BELLE-IIE-LE-TALUT,47.30,-3.17,13.7,5.0,-0.5,37,23,
4,FRA,BIARRITZ,43.47,-1.53,14.7,6.4,0.6,32,-22,
4,FRA,BORDEAUX-MERIGNAC,44.83,-0.68,14.4,7.1,-0.8,26,50,
4,FRA,BOULOGNE,50.73,1.60,11.7,6.1,0.0,29,3,
4,FRA,BOURG-ST-MAURICE,45.62,6.77,10.4,10.3,0.5,20,5,
4,FRA,BOURGES,47.07,2.37,13.1,8.0,-0.6,22,22,
4,FRA,BREST,48.45,-4.42,12.1,5.1,0.5,34,-32,
4,FRA,CAEN-CARPIQUET,49.18,-0.45,12.1,6.3,0.0,28,10,
4,FRA,CALVI,42.53,8.80,17.8,8.5,-0.6,27,41,
4,FRA,CAMBRAI,50.22,3.15,11.4,7.6,0.0,24,4,
4,FRA,CAP-BEAR,42.52,3.13,17.0,7.5,-1.1,26,37,
4,FRA,CAP-CEPET,43.08,5.93,16.9,8.3,-1.0,26,40,
4,FRA,CAP-CORSE,43.00,9.37,18.5,8.1,0.0,30,-5,
4,FRA,CAP-DE-LA-HEVE,49.50,0.07,12.1,6.1,0.1,31,5,
4,FRA,CAP-PERTUSATO,41.37,9.17,17.7,7.5,-0.6,32,34,
4,FRA,CAZAUX,44.53,-1.13,14.2,7.0,-0.3,25,16,
4,FRA,CHAMBERY-AIX-LES-BA,45.63,5.87,12.4,9.4,0.1,18,14,
4,FRA,CHASSIRON,46.05,-1.42,14.4,6.0,0.0,32,10,
4,FRA,CLERMONT-FERRAND,45.78,3.17,12.7,7.9,-0.9,25,40,
4,FRA,COGNAC,45.67,-0.32,14.1,7.9,0.7,26,-16,
4,FRA,DIEPPE,49.93,1.10,12.0,5.9,-0.5,34,37,
4,FRA,DIJON,47.27,5.08,12.3,8.4,-0.6,24,25,
4,FRA,DINARD,48.58,-2.07,12.8,6.3,-0.9,28,48,
4,FRA,DUNKERQUE,51.05,2.33,11.9,6.3,0.1,31,0,
4,FRA,GRENOBLE-ST-GEOIRS,45.37,5.33,12.4,9.0,0.1,24,10,
4,FRA,GROUIN-DE-CANCALE,48.72,-1.85,12.4,5.8,0.1,37,20,
4,FRA,HYERES,43.10,6.15,17.5,8.5,-0.6,25,40,
4,FRA,ISTRES,43.52,4.92,16.4,9.6,0.3,22,3,
4,FRA,L-IIE-D-YEU,46.70,-2.33,13.9,5.7,-0.2,36,5,
4,FRA,LE-BOURGET,48.97,2.43,12.6,7.4,-0.6,25,27,
4,FRA,LE-MANS,47.93,0.20,13.4,7.3,-0.4,25,37,
4,FRA,LE-PUY,45.08,3.77,9.8,8.0,-1.1,22,45,
4,FRA,LILLE-LESQUI,50.57,3.10,11.6,7.0,-0.6,22,39,
4,FRA,LIMOGES,45.87,1.18,12.3,7.4,-0.9,26,42,
4,FRA,LORIENT-LAN-BIHOUE,47.77,-3.45,12.6,5.9,-0.1,30,8,
4,FRA,LUXEUIL,47.80,6.38,11.2,8.6,-0.8,19,56,
4,FRA,LYON-BRON,45.72,4.93,13.5,8.9,0.1,25,2,
4,FRA,LYON-SATOLAS,45.73,5.08,13.4,8.5,0.1,19,10,
4,FRA,MACON,46.30,4.80,12.6,9.0,-0.1,21,2,
4,FRA,MARIGNANE,43.45,5.23,17.0,9.2,0.0,20,0,
4,FRA,MAUPERTUS,49.65,-1.48,11.7,5.3,-0.5,36,5,
4,FRA,METZ-FRESCATY,49.08,6.13,11.4,8.0,-0.2,20,16,
4,FRA,MEYENHEIM-COLMAR,47.92,7.40,11.9,8.9,-0.1,17,13,
4,FRA,MONT-DE-MARSAN,43.92,-0.50,14.1,7.7,0.2,23,9,
4,FRA,MONTELIMAR,44.58,4.73,14.8,8.9,1.0,24,-35,
4,FRA,MONTPELLIER,43.58,3.97,16.7,9.2,0.0,22,4,
4,FRA,NANCY-ESSEY,48.68,6.22,11.6,7.7,-0.7,20,13,
4,FRA,NANTES,47.15,-1.60,13.4,6.7,-0.9,29,33,
4,FRA,NICE,43.65,7.20,17.5,8.6,-1.0,24,46,
4,FRA,NIMES-COURBESSAC,43.87,4.40,16.6,9.6,-0.8,19,44,
4,FRA,NIMES-GARONS(NAVY),43.75,4.42,16.5,9.4,-0.1,20,9,
4,FRA,ORANGE,44.13,4.83,16.3,9.9,0.9,20,-37,
4,FRA,ORLEANS,47.98,1.78,12.2,7.6,-0.3,25,10,
4,FRA,OUESSANT,48.48,-5.05,13.2,3.9,-0.6,42,28,
4,FRA,PARIS-ORLY,48.72,2.38,12.5,7.6,-0.5,25,23,
4,FRA,PAU,43.38,-0.42,14.0,7.4,0.2,25,8,
4,FRA,PERPIGNAN,42.73,2.87,16.4,7.6,-1.1,28,44,
4,FRA,POITIERS,46.58,0.30,13.0,7.3,0.1,26,1,
4,FRA,PTE-DE-LA-HAGUE,49.72,-1.93,12.6,4.8,-0.3,38,-20,
4,FRA,PTE-DE-PENMARCH,47.80,-4.37,13.6,4.5,-0.4,41,-6,
4,FRA,REIMS,49.30,4.03,11.7,7.3,-0.1,21,18,
4,FRA,RENNES,48.07,-1.73,13.0,6.7,-0.8,28,36,
4,FRA,ROUEN,49.38,1.18,11.3,6.7,-0.2,26,12,
4,FRA,SAINT-DIZIER,48.63,4.90,12.6,7.8,-0.1,23,8,
4,FRA,SAINT-GIRONS,43.00,1.10,13.2,7.8,0.8,23,-33,
4,FRA,ST-ETIENNE-BOUTHEON,45.53,4.30,12.9,8.0,-0.1,23,13,
4,FRA,STRASBOURG-ENTZHEIM,48.55,7.63,11.8,8.7,-0.8,17,43,
4,FRA,TARBES-OSSUN,43.18,0.00,13.5,7.3,0.0,28,12,
4,FRA,TOULOUSE-BLAGNAC,43.63,1.37,14.6,8.1,1.1,29,-33,
4,FRA,TOURS,47.45,0.73,12.4,7.4,-0.6,24,18,
4,FRA,VILLACOUBLAY,48.77,2.20,12.1,7.5,-0.7,23,26,
4,FRO,TORSHAVN,62.02,-6.77,7.9,3.7,-0.6,43,29,
4,GBR,ABERDEEN-DYCE-AP,57.20,-2.22,9.4,5.1,0.0,26,2,
4,GBR,ABERPORTH,52.13,-4.57,10.7,4.6,-0.6,36,31,
4,GBR,ASPATRIA,54.77,-3.32,9.9,5.6,-0.6,26,38,
4,GBR,AUGHTON,53.55,-2.92,10.8,5.9,-0.7,32,40,
4,GBR,AVIEMORE,57.20,-3.83,7.7,5.7,-0.1,22,12,
4,GBR,BANGOR-HARBOUR,54.67,-5.67,11.7,4.6,-0.3,34,25,
4,GBR,BELFAST-ALDERGROVE,54.65,-6.22,10.4,4.9,-0.5,26,14,
4,GBR,BENBECULA-ISLAND,57.47,-7.37,10.3,4.3,-0.5,30,44,
4,GBR,BENSON,51.62,-1.08,11.3,5.9,-0.7,29,25,
4,GBR,BIRMINGHAM-AP,52.45,-1.73,11.0,6.0,-0.6,26,21,
4,GBR,BLACKPOOL-AP,53.77,-3.03,11.2,5.6,-0.3,29,13,
4,GBR,BOSCOMBE-DOWN,51.17,-1.75,11.0,5.7,-0.7,30,23,
4,GBR,BOULMER,55.42,-1.60,9.5,5.0,-0.2,32,15,
4,GBR,BOURNEMOUTH-HURN,50.78,-1.83,11.3,5.4,-0.7,33,21,
4,GBR,BRACKNELL-BEAUFORT,51.38,-0.78,10.9,6.3,-0.6,23,20,
4,GBR,BRIDLINGTON-MRSC,54.10,-0.17,10.6,5.4,-0.7,32,46,
4,GBR,BRISTOL-WEA-CENTER,51.47,-2.60,12.1,5.7,-0.5,26,18,
4,GBR,BRIZE-NORTON,51.75,-1.58,11.1,6.0,-0.1,26,8,
4,GBR,BUTT-OF-LEWIS(LH),58.52,-6.27,9.9,4.3,-0.5,37,30,
4,GBR,CAMBORNE,50.22,-5.32,11.7,4.2,-0.8,37,33,
4,GBR,CAPE-WRATH(LGT-H),58.63,-5.00,9.0,3.8,-0.4,36,2,
4,GBR,CARDIFF-WALES-AP,51.40,-3.35,11.4,5.2,-0.6,30,14,
4,GBR,CARDIFF-WEATHER-CEN,51.48,-3.18,12.3,5.7,-0.2,27,16,
4,GBR,CARMONEY,55.02,-7.23,10.2,5.0,-0.4,30,38,
4,GBR,CARTERHOUSE,55.37,-2.52,9.0,5.7,-0.6,27,40,
4,GBR,CHURCH-FENTON,53.83,-1.20,11.0,5.8,-0.7,29,31,
4,GBR,CILFYNYDD,51.63,-3.30,10.7,6.0,-0.5,25,15,
4,GBR,COLTISHALL,52.77,1.35,11.0,5.7,0.5,30,-20,
4,GBR,CONINGSBY,53.08,-0.17,10.9,6.0,-0.5,26,40,
4,GBR,CORGARY,54.43,-8.05,9.7,5.2,-0.6,29,32,
4,GBR,COTTESMORE,52.73,-0.65,10.6,6.1,-0.1,30,16,
4,GBR,CRANWELL,53.03,-0.50,10.8,6.2,-0.7,27,47,
4,GBR,CULDROSE,50.08,-5.25,11.7,4.5,-0.5,40,27,
4,GBR,DISFORTH-AIRFIELD,54.13,-1.42,10.6,5.9,-0.1,27,4,
4,GBR,DUMFRIES-DRUNGANS,55.05,-3.65,10.3,5.5,-0.1,25,8,
4,GBR,EDINBURGH-AP,55.95,-3.35,10.0,5.4,-0.1,28,-8,
4,GBR,EMLEY-MOOR,53.62,-1.67,9.8,5.5,-0.7,27,15,
4,GBR,ESKDALEMUIR,55.32,-3.20,8.3,5.4,0.0,29,14,
4,GBR,EXETER-AP,50.73,-3.42,11.5,5.5,-0.4,30,30,
4,GBR,FAIR-ISLE,59.53,-1.63,9.0,3.5,0.5,44,-41,
4,GBR,FIFE-NESS,56.30,-2.58,10.3,4.7,-0.5,35,34,
4,GBR,FOYERS,57.27,-4.48,9.2,5.2,0.0,26,-1,
4,GBR,FYLINGDALES,54.37,-0.67,8.9,5.5,0.0,31,5,
4,GBR,GLASGOW-AP,55.87,-4.43,10.0,5.4,-0.6,26,45,
4,GBR,GLENLIVET,57.35,-3.35,9.0,6.1,-0.9,22,23,
4,GBR,GREAT-MALVERN,52.12,-2.30,11.8,6.0,-0.6,23,33,
4,GBR,GREENOCK-MRCC,55.97,-4.80,11.0,5.0,-0.5,31,19,
4,GBR,HEMSBY,52.68,1.68,10.8,5.6,-0.8,31,46,
4,GBR,HILLSBOROUGH,54.48,-6.10,10.3,4.8,-0.6,27,22,
4,GBR,"INVERGORDON-
HARBOUR",57.68,-4.17,9.7,5.3,-0.6,30,39,
4,GBR,INVERNESS-DALCROSS,57.53,-4.05,9.4,5.8,0.7,26,-30,
4,GBR,KINLOSS,57.65,-3.57,9.8,4.9,-0.2,28,12,
4,GBR,KIRKWALL-AP,58.95,-2.90,9.0,4.2,-0.3,36,30,
4,GBR,LANGDON-BAY,51.13,1.35,11.0,5.7,0.0,36,6,
4,GBR,LARKHILL,51.20,-1.80,11.1,5.9,-0.6,28,27,
4,GBR,LARNE,54.85,-5.80,11.0,4.4,-0.3,36,38,
4,GBR,LEEDS-WEATHER-CTR,53.80,-1.55,11.3,5.7,-0.9,23,37,
4,GBR,LEEMING,54.30,-1.53,10.3,5.8,0.0,27,3,
4,GBR,LERWICK,60.13,-1.18,8.3,4.0,-0.5,37,34,
4,GBR,LEUCHARS,56.40,-2.87,9.8,5.3,0.1,29,7,
4,GBR,LINTON-ON-OUSE,54.05,-1.25,10.6,6.2,-0.2,26,18,
4,GBR,LOCHRANZA,55.70,-5.30,11.2,5.6,-0.5,25,15,
4,GBR,LONDON-GATWICK-AP,51.15,-0.18,11.6,6.2,-0.6,24,16,
4,GBR,LONDON-HEATHROW-AP,51.48,-0.45,12.3,6.4,-0.7,25,25,
4,GBR,LONDON-WEATHER-CENT,51.52,-0.10,13.0,6.2,-0.1,27,7,
4,GBR,LOSSIEMOUTH,57.72,-3.32,9.5,5.2,0.0,25,6,
4,GBR,LYNEHAM,51.50,-1.98,10.9,5.8,-0.7,26,32,
4,GBR,MACHRIHANISH,55.43,-5.70,10.4,4.9,-0.8,32,9,
4,GBR,MADLEY,52.03,-2.85,11.0,5.7,-1.0,21,41,
4,GBR,MANCHESTER-AP,53.35,-2.28,11.1,5.9,-0.5,27,28,
4,GBR,MARHAM,52.65,0.57,11.1,6.4,-0.6,25,35,
4,GBR,MIDDLE-WALLOP,51.15,-1.57,11.4,6.1,-0.6,29,37,
4,GBR,MILFORD-HAVEN,51.70,-5.05,11.6,4.6,-0.6,34,33,
4,GBR,MUMBLES,51.57,-3.98,11.7,5.2,-0.5,34,31,
4,GBR,NEWHAVEN(LGT-H),50.78,0.05,12.1,5.6,-0.5,34,29,
4,GBR,NORTHOLT,51.55,-0.42,11.7,6.4,-0.8,25,31,
4,GBR,NORWICH-WEA-CNTRE,52.63,1.32,11.4,6.2,-0.7,28,36,
4,GBR,OBAN,56.42,-5.47,10.1,5.2,0.0,25,9,
4,GBR,ODIHAM,51.23,-0.95,11.2,5.7,-0.6,27,38,
4,GBR,ORSAY(LGT-H),55.67,-6.50,10.8,4.3,0.1,37,0,
4,GBR,PENDENNIS-POINT,50.15,-5.07,12.4,4.4,-0.5,36,44,
4,GBR,PETERHEAD-HARBOUR,57.50,-1.77,10.0,4.4,-0.4,36,42,
4,GBR,PORTLAND-HELIPORT,50.57,-2.45,12.6,5.2,-0.1,41,16,
4,GBR,PRESTWICK(CIV-NAVY),55.50,-4.58,10.4,5.1,-0.6,26,30,
4,GBR,SALSBURGH,55.87,-3.87,8.9,5.9,-1.0,27,40,
4,GBR,SHAWBURY,52.80,-2.67,10.3,5.9,-0.4,25,10,
4,GBR,SHEERNESS,51.45,0.75,12.3,5.8,0.0,35,-1,
4,GBR,SHOEBURYNESS,51.55,0.83,11.5,6.5,-0.6,32,29,
4,GBR,SOLENT-MRSC,50.80,-1.22,12.4,5.9,-0.4,33,33,
4,GBR,"SOUTHAMPTON-WX-
CNTR",50.90,-1.40,12.2,6.1,-0.5,26,41,
4,GBR,ST-CATHERINES-POIN,50.58,-1.30,12.0,5.3,-0.6,36,34,
4,GBR,ST-MAWGAN,50.43,-5.00,11.7,4.5,-0.7,37,27,
4,GBR,STANSTED-AP,51.88,0.23,10.7,6.4,-0.1,27,7,
4,GBR,STORNOWAY,58.22,-6.32,9.5,4.2,-0.5,34,42,
4,GBR,SUMBURGH(CAPE),59.88,-1.30,9.3,3.8,-0.4,43,41,
4,GBR,TIREE,56.50,-6.88,10.2,3.9,-0.5,35,11,
4,GBR,TYNEMOUTH,55.02,-1.42,10.3,4.8,0.1,36,7,
4,GBR,VALLEY,53.25,-4.53,11.1,4.8,-0.4,36,31,
4,GBR,WADDINGTON,53.17,-0.52,10.9,5.9,-0.7,27,32,
4,GBR,WALTON-ON-NAZE,51.85,1.28,11.8,6.5,-0.5,32,32,
4,GBR,WATTISHAM,52.12,0.97,10.8,5.9,-0.5,29,43,
4,GBR,WICK,58.45,-3.08,8.7,4.6,0.4,34,-24,
4,GBR,WITTERING,52.62,-0.47,10.8,6.0,0.0,26,5,
4,GBR,WYTON(RAF),52.35,-0.12,10.7,6.2,-0.5,29,12,
4,GBR,YEOVILTON,51.00,-2.63,11.6,5.7,-0.5,30,15,
4,GEO,TBILISI,41.68,44.95,14.2,11.3,0.0,25,5,
4,GGY,GUERNSEY-AP,49.43,-2.60,12.1,4.5,-0.5,42,26,
4,GIB,GIBRALTAR,36.15,-5.35,20.0,6.0,0.8,27,-35,
4,GRC,AKTION(AP),38.62,20.77,19.1,8.7,0.5,28,-39,
4,GRC,ALEXANDROUPOLI(AP),40.85,25.92,16.5,10.9,-0.4,22,29,
4,GRC,ANDRAVIDA(AP),37.92,21.28,19.1,9.0,-0.1,26,8,
4,GRC,ATHINAI(AP),37.90,23.73,20.0,9.5,-0.7,27,32,
4,GRC,HERAKLION(AP),35.33,25.18,20.4,7.8,-0.4,31,22,
4,GRC,KASTORIA(AP),40.45,21.28,15.1,11.9,0.7,23,-19,
4,GRC,KERKYRA(AP),39.62,19.92,19.7,9.2,-0.5,26,47,
4,GRC,KYTHIRA,36.28,23.02,19.8,8.4,-0.6,30,20,
4,GRC,LAMIA,38.90,22.40,18.2,10.3,-0.7,20,27,
4,GRC,LARISSA(AP),39.63,22.42,18.3,11.2,0.5,21,-4,
4,GRC,LIMNOS(AP),39.92,25.23,17.4,9.9,0.1,24,6,
4,GRC,METHONI,36.83,21.70,20.0,7.9,0.4,31,-33,
4,GRC,MILOS,36.72,24.45,19.4,8.5,-0.6,27,15,
4,GRC,MYTILINI(AP),39.07,26.60,19.6,9.5,-0.4,23,24,
4,GRC,NAXOS,37.10,25.38,19.8,7.2,-0.4,29,19,
4,GRC,RHODES(AP),36.40,28.08,21.1,7.7,0.4,29,-18,
4,GRC,SAMOS(AP),37.70,26.92,20.3,9.3,-0.8,27,28,
4,GRC,SKYROS(AP),38.97,24.48,19.0,8.8,0.0,26,3,
4,GRC,SOUDA(AP),35.48,24.12,19.8,8.2,-0.2,27,3,
4,GRC,SOUDA-BAY-CRETE,35.53,24.15,20.3,8.4,-0.4,26,8,
4,GRC,THESSALONIKI(AP),40.52,22.97,16.5,9.7,-0.4,28,10,
4,GRC,TRIPOLIS(AP),37.53,22.40,16.3,10.8,-0.9,25,40,
4,GRL,DANMARKSHAVN,76.77,-18.67,-8.4,11.8,-1.6,36,22,
4,GRL,KANGERLUSSUAQ(SDR),67.02,-50.70,-2.1,9.3,-2.7,38,-13,
4,GRL,NARSARSUAQ,61.13,-45.43,2.5,7.3,-1.2,37,25,
4,GRL,NUUK(GODTHAAB),64.17,-51.75,-0.4,4.2,-0.9,41,2,
4,GRL,PITUFFIK(THULE-AB),76.53,-68.75,-6.0,11.8,-2.9,48,-21,
4,HUN,BAJA,46.18,19.02,11.8,10.9,0.1,20,9,
4,HUN,BEKESCSABA,46.68,21.17,12.0,10.8,0.2,21,9,
4,HUN,BUDAPEST-PESTSZENTL,47.43,19.18,12.2,11.0,0.7,20,-25,
4,HUN,DEBRECEN,47.48,21.60,11.6,10.9,0.5,18,8,
4,HUN,GYOR,47.72,17.68,12.0,10.2,-0.2,20,6,
4,HUN,KECSKEMET,46.92,19.75,11.9,10.5,0.3,17,16,
4,HUN,KEKESTETO,47.87,20.02,7.7,9.4,-0.8,23,19,
4,HUN,KESZTHELY,46.73,17.23,12.1,10.3,-0.1,20,9,
4,HUN,MISKOLC,48.10,20.77,11.5,10.9,0.5,17,-8,
4,HUN,NAGYKANIZSA,46.45,16.97,11.1,10.8,0.3,20,4,
4,HUN,NYIREGYHAZA-NAPKOR,47.97,21.88,11.4,10.6,-0.2,19,16,
4,HUN,PAKS,46.58,18.85,12.2,11.2,0.2,20,9,
4,HUN,PAPA,47.20,17.50,12.0,9.9,-0.1,20,14,
4,HUN,PECS-POGANY,46.00,18.23,12.2,10.4,0.2,22,5,
4,HUN,SIOFOK,46.92,18.05,12.6,10.7,-0.1,21,13,
4,HUN,SOPRON,47.68,16.60,11.4,9.9,0.0,20,6,
4,HUN,SZEGED,46.25,20.10,12.5,10.3,0.5,20,-5,
4,HUN,SZENTGOTTHARD-FARKA,46.92,16.32,11.1,9.7,0.1,20,8,
4,HUN,SZOLNOK,47.12,20.23,12.3,10.6,-0.7,20,46,
4,HUN,SZOMBATHELY,47.27,16.63,11.4,10.1,0.3,20,6,
4,HUN,VESZPREM-SZENTKIRAL,47.07,17.83,11.1,10.2,0.0,20,10,
4,IMN,ISLE-OF-MAN-RONALDS,54.08,-4.63,11.0,4.4,-0.3,39,0,
4,IRL,BELMULLET,54.23,-10.00,11.4,4.0,-0.3,34,33,
4,IRL,BIRR,53.08,-7.88,10.9,5.0,-0.6,25,23,
4,IRL,CASEMENT-AERODROME,53.30,-6.43,10.8,5.0,-0.5,27,23,
4,IRL,CLONES,54.18,-7.23,10.2,5.3,-0.5,29,47,
4,IRL,CORK-AP,51.85,-8.48,10.9,4.5,-0.3,32,47,
4,IRL,DUBLIN-AP,53.43,-6.25,10.6,4.8,-0.4,29,33,
4,IRL,KILKENNY,52.67,-7.27,10.7,5.3,-0.6,26,34,
4,IRL,MALIN-HEAD,55.37,-7.33,10.6,4.1,0.6,37,-41,
4,IRL,MULLINGAR,53.53,-7.37,10.2,5.2,-0.2,27,6,
4,IRL,ROSSLARE,52.25,-6.33,11.5,4.2,-0.1,35,3,
4,IRL,SHANNON-AP,52.70,-8.92,11.6,4.9,-0.4,27,29,
4,IRL,VALENTIA-OBSERVATOR,51.93,-10.25,12.0,3.9,-0.1,36,3,
4,ISL,AKUREYRI,65.68,-18.08,4.5,6.4,-1.9,29,11,
4,ISL,AKURNES,64.30,-15.22,5.9,5.5,-0.8,27,23,
4,ISL,BERGSTADIR,65.70,-19.62,3.9,6.2,-1.2,36,18,
4,ISL,BOLUNGAVIK,66.15,-23.25,4.2,5.7,-1.7,36,18,
4,ISL,DALATANGI,65.27,-13.58,5.1,4.2,-0.9,33,31,
4,ISL,EGILSSTADIR,65.28,-14.40,4.4,6.4,-2.0,34,18,
4,ISL,EYRARBAKKI,63.87,-21.15,5.9,5.9,-1.3,22,20,
4,ISL,HVERAVELLIR,64.87,-19.57,0.4,3.9,-1.0,40,17,
4,ISL,KEFLAVIK,63.97,-22.60,6.0,5.4,-0.8,31,22,
4,ISL,KIRKJUBAEJARKLAUSTU,63.78,-18.07,5.6,5.9,-1.0,28,10,
4,ISL,RAUFARHOFN,66.45,-15.95,3.6,5.4,-1.6,35,28,
4,ISL,REYKJAVIK,64.13,-21.90,5.7,5.7,-0.6,28,10,
4,ISL,STYKKISHOLMUR,65.08,-22.73,4.7,6.2,-1.3,36,16,
4,ISL,VESTMANNAEYJAR,63.40,-20.28,6.3,4.3,-0.8,34,21,
4,ISR,BEER-SHEVA,31.23,34.78,22.2,8.3,0.8,26,15,
4,ISR,EILAT,29.55,34.95,26.5,9.1,0.8,23,0,
4,ISR,HAIFA,32.80,35.03,22.4,7.6,0.8,32,7,
4,ISR,JERUSALEM,31.87,35.22,18.6,8.4,0.6,28,8,
4,ISR,OVDA,30.00,34.83,22.5,9.1,1.1,21,5,
4,ISR,SDE-DOV(TEL-AVIV),32.10,34.78,22.7,7.4,0.5,34,9,
4,ITA,ALBENGA,44.05,8.12,16.2,10.0,0.6,23,-12,
4,ITA,ALGHERO,40.63,8.28,18.4,8.5,-0.8,28,37,
4,ITA,AMENDOLA,41.53,15.72,16.9,9.0,-0.6,30,38,
4,ITA,BARI-PALESE-MACCHIE,41.13,16.78,17.1,8.5,-0.7,31,23,
4,ITA,BERGAMO-ORIO-AL-SER,45.67,9.70,14.5,10.6,0.9,20,-23,
4,ITA,BOLOGNA-BORGO-PANIG,44.53,11.30,15.5,10.8,0.6,23,-9,
4,ITA,BOLZANO,46.47,11.33,13.7,11.1,1.4,17,-13,
4,ITA,BRESCIA-GHEDI,45.42,10.28,14.5,11.5,0.9,20,-25,
4,ITA,BRINDISI,40.65,17.95,19.3,9.0,-0.3,28,1,
4,ITA,CAGLIARI-ELMAS,39.25,9.07,19.2,8.5,0.6,27,-47,
4,ITA,CAMPOBASSO,41.57,14.65,14.0,9.0,-0.9,29,37,
4,ITA,CAPO-BELLAVISTA,39.93,9.72,19.2,8.4,-0.9,30,35,
4,ITA,CAPO-CACCIA,40.57,8.17,18.6,7.9,0.6,31,-34,
4,ITA,CAPO-FRASCA,39.75,8.47,18.9,7.7,0.7,34,-49,
4,ITA,CAPO-MELE,43.95,8.17,16.9,8.2,-0.8,27,37,
4,ITA,CAPO-PALINURO,40.02,15.28,19.0,8.8,-1.0,31,31,
4,ITA,CATANIA-FONTANAROSS,37.47,15.05,19.9,8.8,0.7,29,-35,
4,ITA,CATANIA-SIGONELLA,37.40,14.92,19.5,8.9,-1.0,29,38,
4,ITA,COZZO-SPADARO,36.68,15.13,20.9,8.2,-0.7,34,41,
4,ITA,CROTONE,39.00,17.07,18.7,9.1,0.1,30,-15,
4,ITA,DOBBIACO,46.73,12.22,8.9,12.2,-0.4,22,8,
4,ITA,FALCONARA,43.62,13.37,15.5,9.1,0.0,29,-7,
4,ITA,FIRENZE-PERETOLA,43.80,11.20,16.6,9.8,-1.0,25,40,
4,ITA,FRONTONE,43.52,12.73,14.7,9.9,-0.5,25,35,
4,ITA,GELA,37.08,14.22,20.4,7.6,0.5,33,-21,
4,ITA,GENOVA-SESTRI,44.42,8.85,17.8,9.1,1.0,24,-45,
4,ITA,GROSSETO,42.75,11.07,17.5,9.8,-0.1,25,2,
4,ITA,LAMEZIA-TERME,38.90,16.25,19.0,8.3,-0.7,31,31,
4,ITA,MARINA-DI-GINOSA,40.43,16.88,18.7,9.3,-0.5,28,25,
4,ITA,MESSINA,38.20,15.55,21.0,8.2,-0.7,33,33,
4,ITA,MILANO-LINATE,45.43,9.28,14.9,10.9,1.4,20,-18,
4,ITA,MILANO-MALPENSA,45.62,8.73,13.6,10.9,0.1,19,12,
4,ITA,MONDOVI,44.38,7.82,13.8,9.9,1.4,22,-33,
4,ITA,MONTE-CIMONE,44.20,10.70,4.8,7.0,-2.0,35,22,
4,ITA,MONTE-TERMINILLO,42.47,12.98,7.5,8.3,-1.1,36,21,
4,ITA,NAPOLI-CAPODICHINO,40.85,14.30,18.8,9.3,0.4,25,-23,
4,ITA,PAGANELLA,46.15,11.03,4.5,8.4,-2.0,38,25,
4,ITA,PALERMO-BOCCADIFALC,38.10,13.30,20.5,8.7,-0.4,28,11,
4,ITA,PALERMO-PUNTA-RAISI,38.18,13.10,20.7,8.0,0.8,32,-36,
4,ITA,PANTELLERIA,36.82,11.97,19.8,7.8,0.5,34,-36,
4,ITA,PASSO-DELLA-CISA,44.43,9.93,11.1,9.3,1.3,23,-31,
4,ITA,PASSO-ROLLE,46.30,11.78,4.9,8.7,-1.6,39,27,
4,ITA,PERUGIA,43.08,12.50,15.2,9.5,0.8,27,-34,
4,ITA,PESCARA,42.43,14.20,16.0,9.0,0.0,27,-1,
4,ITA,PIACENZA,44.92,9.73,14.4,10.8,1.0,22,-29,
4,ITA,PISA-S-GIUSTO,43.68,10.38,17.1,9.4,-0.8,24,43,
4,ITA,PONZA,40.92,12.95,18.9,8.2,0.0,30,-9,
4,ITA,POTENZA,40.63,15.80,14.7,10.6,-1.2,27,40,
4,ITA,PUNTA-MARINA,44.45,12.30,15.3,10.4,0.7,23,-13,
4,ITA,RIMINI,44.03,12.62,15.0,10.0,0.4,25,-13,
4,ITA,ROMA-FIUMICINO,41.80,12.23,18.0,8.6,-0.6,26,45,
4,ITA,RONCHI-DEI-LEGIONAR,45.82,13.48,14.7,9.9,0.2,24,8,
4,ITA,S-MARIA-DI-LEUCA,39.82,18.35,19.1,8.5,-1.1,30,34,
4,ITA,S-VALENTINO-ALLA-M,46.75,10.53,7.2,9.5,-0.7,26,-6,
4,ITA,SIGONELLA,37.40,14.92,20.0,9.1,0.6,30,-23,
4,ITA,TARVISIO,46.50,13.58,9.6,11.6,0.6,26,24,
4,ITA,TORINO-BRIC-DELLA-C,45.03,7.73,13.4,9.6,1.5,21,-34,
